[{"lat": "9.941163", "info": {"comment": "Residential (STOFA)", "country": "DK", "city": "Aalborg", "name": "aal-dk", "asn": "197288"}, "lon": "57.035498"}, {"lat": "-0.2166667", "info": {"comment": "Ghana Internet eXchange (GIX)", "country": "GH", "city": "Accra", "name": "acc-gh", "asn": "30997"}, "lon": "5.55"}, {"lat": "138.598633", "info": {"comment": "Residential (Internode)", "country": "AU", "city": "Adelaide", "name": "adl-au", "asn": "4739"}, "lon": "-34.928661"}, {"lat": "-58.6725", "info": {"comment": "Universidad de Buenos Aires", "country": "AR", "city": "Buenos Aires", "name": "aep-ar", "asn": "3449"}, "lon": "-34.5875"}, {"lat": "4.916667", "info": {"comment": "SURFnet", "country": "NL", "city": "Amsterdam", "name": "ams-nl", "asn": "1103"}, "lon": "52.35"}, {"lat": "4.916667", "info": {"comment": "AMS-IX", "country": "NL", "city": "Amsterdam", "name": "ams2-nl", "asn": "1200"}, "lon": "52.35"}, {"lat": "4.916667", "info": {"comment": "Liberty Global", "country": "NL", "city": "Amsterdam", "name": "ams5-nl", "asn": "6830"}, "lon": "52.35"}, {"lat": "4.916667", "info": {"comment": "Residential (Ziggo)", "country": "NL", "city": "Amsterdam", "name": "ams6-nl", "asn": "9143"}, "lon": "52.35"}, {"lat": "-81.0861111", "info": {"comment": "Iowa State University", "country": "IA", "city": "Ames", "name": "amw-us", "asn": "2698"}, "lon": "38.0861111"}, {"lat": "-112.0233333", "info": {"comment": "GCI", "country": "AK", "city": "Anchorage", "name": "anc-us", "asn": "8047"}, "lon": "41.0880556"}, {"lat": "13.416667", "info": {"comment": "NORDUnet", "country": "SE", "city": "Stockholm", "name": "arn-se", "asn": "2603"}, "lon": "56.133333"}, {"lat": "-94.1641667", "info": {"comment": "Residential (DirectTV)", "country": "GA", "city": "Atlanta", "name": "atl-us", "asn": "31939"}, "lon": "33.1136111"}, {"lat": "-111.1986111", "info": {"comment": "Residential (Comcast)", "country": "GA", "city": "Tucker", "name": "atl2-us", "asn": "7922"}, "lon": "39.9344444"}, {"lat": "-82.9597222", "info": {"comment": "Residential (Charter Business DSL)", "country": "NC", "city": "Lake Junaluska", "name": "avl-us", "asn": "20115"}, "lon": "35.5277778"}, {"lat": "-89.6930556", "info": {"comment": "Residential (Century Link DSL)", "country": "AZ", "city": "Gilbert", "name": "aza-us", "asn": "209"}, "lon": "45.4313889"}, {"lat": "26.1", "info": {"comment": "Medical Express (RCS/RDS))", "country": "RO", "city": "Bucharest", "name": "bbu-ro", "asn": "8708"}, "lon": "44.433333"}, {"lat": "2.1741", "info": {"comment": "Universitat Politecnica de Catalunya", "country": "ES", "city": "Barcelona", "name": "bcn-es", "asn": "13041"}, "lon": "41.398371"}, {"lat": "-88.5986111", "info": {"comment": "Residential (Comcast Cable)", "country": "MA", "city": "Concord", "name": "bed-us", "asn": "7922"}, "lon": "43.0694444"}, {"lat": "-72.1958333", "info": {"comment": "Residential (Verizon Fios)", "country": "MA", "city": "Groton", "name": "bed2-us", "asn": "701"}, "lon": "44.2102778"}, {"lat": "-122.9041667", "info": {"comment": "Residential (RCN)", "country": "MA", "city": "Lexington", "name": "bed3-us", "asn": "6079"}, "lon": "46.1875000"}, {"lat": "20.468056", "info": {"comment": "Serbian Open eXchange (SOX)", "country": "RS", "city": "Belgrade", "name": "beg-rs", "asn": "13004"}, "lon": "44.818611"}, {"lat": "-122.3308333", "info": {"comment": "Residential (Centurylink GPON)", "country": "WA", "city": "Seattle", "name": "bfi-us", "asn": "209"}, "lon": "47.6063889"}, {"lat": "-105.0861111", "info": {"comment": "Level 3 Communications", "country": "CO", "city": "Broomfield", "name": "bjc-us", "asn": "3356"}, "lon": "39.9205556"}, {"lat": "-16.6780556", "info": {"comment": "QCell", "country": "GM", "city": "Serrekunda", "name": "bjl-gm", "asn": "37309"}, "lon": "13.4383333"}, {"lat": "80.4", "info": {"comment": "Residential (Airtel)", "country": "IN", "city": "Bangaluru", "name": "blr-in", "asn": "24560"}, "lon": "23.85"}, {"lat": "17.916667", "info": {"comment": "Acreo", "country": "SE", "city": "Kista", "name": "bma-se", "asn": "49770"}, "lon": "59.45"}, {"lat": "13.416667", "info": {"comment": "Residential (Stockholms Stadsnat)", "country": "SE", "city": "Stockholm", "name": "bma2-se", "asn": "50821"}, "lon": "56.133333"}, {"lat": "-78.1319444", "info": {"comment": "MediaSilo", "country": "MA", "city": "Boston", "name": "bos4-us", "asn": "46887"}, "lon": "38.5408333"}, {"lat": "-78.1319444", "info": {"comment": "Residential (Comcast)", "country": "MA", "city": "Boston", "name": "bos5-us", "asn": "7922"}, "lon": "38.5408333"}, {"lat": "10", "info": {"comment": "Residential (Kabel Deutschland)", "country": "DE", "city": "Bremen", "name": "bre-de", "asn": "31334"}, "lon": "50.716667"}, {"lat": "10", "info": {"comment": "Jacobs University Bremen", "country": "DE", "city": "Bremen", "name": "bre2-de", "asn": "680"}, "lon": "50.716667"}, {"lat": "10", "info": {"comment": "Residential (Kabel Deutschland)", "country": "DE", "city": "Bremen", "name": "bre3-de", "asn": "31334"}, "lon": "50.716667"}, {"lat": "16.85", "info": {"comment": "AMT Services", "country": "IT", "city": "Bari", "name": "bri-it", "asn": "41160"}, "lon": "41.133333"}, {"lat": "19.083333", "info": {"comment": "E\u00f6tv\u00f6s Lor\u00e1nd University (ELTE)", "country": "HU", "city": "Budapest", "name": "bud2-hu", "asn": "2012"}, "lon": "47.5"}, {"lat": "-80.3161111", "info": {"comment": "US Army Research Lab", "country": "MD", "city": "Aberdeen", "name": "bwi-us", "asn": "668"}, "lon": "39.0583333"}, {"lat": "145.016667", "info": {"comment": "Residential (Internode)", "country": "AU", "city": "Red Hill", "name": "cbr-au", "asn": "4739"}, "lon": "-38.35"}, {"lat": "1.545418", "info": {"comment": "Jaguar Network \u2605", "country": "FR", "city": "Boulogne Billancourt", "name": "cdg-fr", "asn": "30781"}, "lon": "43.88419"}, {"lat": "106.829444", "info": {"comment": "Indonesian IPv6 Task Force", "country": "ID", "city": "Jakarta", "name": "cgk-id", "asn": "7587"}, "lon": "-6.174444"}, {"lat": "127.419722", "info": {"comment": "KREONet2", "country": "KR", "city": "Daejeon", "name": "cjj-kr", "asn": "1237"}, "lon": "36.321389"}, {"lat": "-98.2386111", "info": {"comment": "Residential (ATT U-verse)", "country": "CA", "city": "San Diego", "name": "cld2-us", "asn": "7018"}, "lon": "27.7636111"}, {"lat": "-7.619157", "info": {"comment": "CNRST", "country": "MA", "city": "Casablanca", "name": "cmn-ma", "asn": "30983"}, "lon": "33.592779"}, {"lat": "-6.906303", "info": {"comment": "Residential (Maroc Telecom)", "country": "MA", "city": "Khouribga", "name": "cmn2-ma", "asn": "36903"}, "lon": "32.881083"}, {"lat": "2.35", "info": {"comment": "Universite d'Abomey-Calavi", "country": "BJ", "city": "Abomey-Calavi", "name": "coo-bj", "asn": "28683"}, "lon": "6.45"}, {"lat": "12.352019", "info": {"comment": "Solido Networks ApS", "country": "DK", "city": "Ballerup", "name": "cph-dk", "asn": "59469"}, "lon": "55.719777"}, {"lat": "90.4086111", "info": {"comment": "BDCOM Online Limited at BD-IX", "country": "BD", "city": "Dhaka", "name": "dac-bd", "asn": "24122"}, "lon": "23.7230556"}, {"lat": "39.2833333", "info": {"comment": "Tanzania Internet Exchange (TIX)", "country": "TZ", "city": "Dar es Salaam", "name": "dar-tz", "asn": "33791"}, "lon": "-6.8"}, {"lat": "39.2833333", "info": {"comment": "Seacom", "country": "TZ", "city": "Dar es Salaam", "name": "dar2-tz", "asn": "37100"}, "lon": "-6.8"}, {"lat": "-86.9313889", "info": {"comment": "George Washington Univ.", "country": "DC", "city": "Washington", "name": "dca-us", "asn": "11039"}, "lon": "45.3947222"}, {"lat": "-86.9313889", "info": {"comment": "Residential (Verizon Fios)", "country": "DC", "city": "Washington", "name": "dca2-us", "asn": "701"}, "lon": "45.3947222"}, {"lat": "-91.8147222", "info": {"comment": "Southern Methodist University", "country": "TX", "city": "Dallas", "name": "dfw-us", "asn": "1832"}, "lon": "45.2591667"}, {"lat": "-17.4380556", "info": {"comment": "UCAD", "country": "SN", "city": "Dakar", "name": "dkr-sn", "asn": "8346"}, "lon": "14.6708333"}, {"lat": "-7.5502778", "info": {"comment": "HEANet", "country": "IE", "city": "Dublin", "name": "dub-ie", "asn": "1213"}, "lon": "52.5744444"}, {"lat": "31.029198", "info": {"comment": "Seacom", "country": "ZA", "city": "Durban", "name": "dur-za", "asn": "37100"}, "lon": "-29.857896"}, {"lat": "-123.0855556", "info": {"comment": "University of Oregon", "country": "OR", "city": "Eugene", "name": "eug-us", "asn": "3582"}, "lon": "44.0522222"}, {"lat": "-105.0838889", "info": {"comment": "Colorado State University", "country": "CO", "city": "Fort Collins", "name": "fnl-us", "asn": "12145"}, "lon": "40.5852778"}, {"lat": "-90.6819444", "info": {"comment": "Residential (Comcast)", "country": "MD", "city": "Rockville", "name": "gai-us", "asn": "7922"}, "lon": "42.7272222"}, {"lat": "-43.233333", "info": {"comment": "RNP", "country": "BR", "city": "Rio de Janeiro", "name": "gig-br", "asn": "1916"}, "lon": "-22.9"}, {"lat": "6.148113", "info": {"comment": "IP-Max SA", "country": "CH", "city": "Geneva", "name": "gva-ch", "asn": "25091"}, "lon": "46.195602"}, {"lat": "24.666667", "info": {"comment": "TKK", "country": "FI", "city": "Espoo", "name": "hel-fi", "asn": "1741"}, "lon": "60.216667"}, {"lat": "25.1305556", "info": {"comment": "Foundation for Research and Technology - Hellas (FORTH)", "country": "Crete", "city": "Heraklion", "name": "her-gr", "asn": "8522"}, "lon": "35.325"}, {"lat": "107.466389", "info": {"comment": "Tinet", "country": "CN", "city": "Hong Kong", "name": "hkg-cn", "asn": "3257"}, "lon": "37.971111"}, {"lat": "107.466389", "info": {"comment": "Hong Kong Polytechnic University", "country": "CN", "city": "Hong Kong", "name": "hkg2-cn", "asn": "4616"}, "lon": "37.971111"}, {"lat": "107.466389", "info": {"comment": "Residential (Hong Kong Broadband Network, HKBN)", "country": "CN", "city": "Hong Kong", "name": "hkg3-cn", "asn": "9269"}, "lon": "37.971111"}, {"lat": "28.049815", "info": {"comment": "Residential (Internet Solutions)", "country": "ZA", "city": "Johannesburg", "name": "hla-za", "asn": "3741"}, "lon": "-26.205171"}, {"lat": "175.283333", "info": {"comment": "Univ. Waikato", "country": "NZ", "city": "Hamilton", "name": "hlz-nz", "asn": "681"}, "lon": "-37.783333"}, {"lat": "-77.2819444", "info": {"comment": "University of Hawaii", "country": "HI", "city": "Honolulu", "name": "hnl-us", "asn": "6360"}, "lon": "35.3627778"}, {"lat": "-77.4313889", "info": {"comment": "ARIN", "country": "VA", "city": "Chantilly", "name": "iad-us", "asn": "10745"}, "lon": "38.8941667"}, {"lat": "30.516667", "info": {"comment": "TopNet", "country": "UA", "city": "Kiev", "name": "iev-ua", "asn": "21011"}, "lon": "50.433333"}, {"lat": "-104.5952778", "info": {"comment": "Residential (Frontier DSL)", "country": "NC", "city": "Durham", "name": "igx-us", "asn": "5650"}, "lon": "41.2055556"}, {"lat": "-98.8622222", "info": {"comment": "Mid-West IX", "country": "IN", "city": "Indianapolis", "name": "ind-us", "asn": "14333"}, "lon": "35.5513889"}, {"lat": "-90.2816667", "info": {"comment": "Residential (Time Warner Cable)", "country": "NY", "city": "Ithaca", "name": "ith-us", "asn": "11351"}, "lon": "43.3408333"}, {"lat": "-95.6688889", "info": {"comment": "Hurricane Electric \u2605", "country": "NY", "city": "New York", "name": "jfk-us", "asn": "6939"}, "lon": "32.1677778"}, {"lat": "1.545418", "info": {"comment": "Residential (Free)", "country": "FR", "city": "Juan Les Pins", "name": "jlp-fr", "asn": "12322"}, "lon": "43.88419"}, {"lat": "28.049815", "info": {"comment": "Johannesburg Internet Exchange (JINX; IXP-ZA)", "country": "ZA", "city": "Johannesburg", "name": "jnb-za", "asn": "37474"}, "lon": "-26.205171"}, {"lat": "30.0605556", "info": {"comment": "Carnegie Mellon University in Rwanda", "country": "RW", "city": "Kigali", "name": "kgl-rw", "asn": "37228"}, "lon": "-1.9536111"}, {"lat": "30.0605556", "info": {"comment": "Rwanda IXP", "country": "RW", "city": "Kigali", "name": "kgl2-rw", "asn": "37228"}, "lon": "-1.9536111"}, {"lat": "30.0605556", "info": {"comment": "Residential (Liquid Telecom)", "country": "RW", "city": "Kigali", "name": "kgl3-rw", "asn": "21174"}, "lon": "-1.9536111"}, {"lat": "-71.519722", "info": {"comment": "Residential (VTR broadband)", "country": "CL", "city": "Vina del Mar", "name": "kna-cl", "asn": "22047"}, "lon": "-33.008056"}, {"lat": "32.5341667", "info": {"comment": "Sudan Univ. of Science and Technology (SUST)", "country": "SD", "city": "Khartoum", "name": "krt-sd", "asn": "37197"}, "lon": "15.5880556"}, {"lat": "85.3166667", "info": {"comment": "Nepal Research And Education Network", "country": "NP", "city": "Kathmandu", "name": "ktm-np", "asn": "45170"}, "lon": "27.7166667"}, {"lat": "-98.9997222", "info": {"comment": "CENIC", "country": "CA", "city": "Los Angeles", "name": "lax-us", "asn": "2152"}, "lon": "28.4655556"}, {"lat": "-118.4508333", "info": {"comment": "Information Sciences Inst., USC", "country": "CA", "city": "Marina del Rey", "name": "lax3-us", "asn": "4"}, "lon": "33.9802778"}, {"lat": "12.333333", "info": {"comment": "Universitat Leipzig", "country": "DE", "city": "Leipzig", "name": "lej-de", "asn": "680"}, "lon": "51.3"}, {"lat": "-122.9041667", "info": {"comment": "Residential (Time Warner Cable)", "country": "KY", "city": "Lexington", "name": "lex-us", "asn": "10796"}, "lon": "46.1875000"}, {"lat": "-8.2", "info": {"comment": "Residential (NOS)", "country": "PT", "city": "Abrantes", "name": "lis-pt", "asn": "2860"}, "lon": "39.466667"}, {"lat": "3.395833", "info": {"comment": "IXP of Nigeria (IXPN)", "country": "NG", "city": "Lagos", "name": "los-ng", "asn": "37148"}, "lon": "6.453056"}, {"lat": "15.616667", "info": {"comment": "Residential (Bredbandsbolaget)", "country": "SE", "city": "Linkoping", "name": "lpi2-se", "asn": "2119"}, "lon": "58.416667"}, {"lat": "-3.69222", "info": {"comment": "Univ. Carlos III de Madrid (RedIRIS)", "country": "ES", "city": "Madrid", "name": "mad-es", "asn": "766"}, "lon": "40.408566"}, {"lat": "144.963425", "info": {"comment": "University of Melbourne", "country": "AU", "city": "Melbourne", "name": "mel-au", "asn": "10148"}, "lon": "-37.813938"}, {"lat": "12.85", "info": {"comment": "Residential (Bahnhof)", "country": "SE", "city": "Lund", "name": "mmx-se", "asn": "8473"}, "lon": "57.716667"}, {"lat": "12.85", "info": {"comment": "(colo at) ViaEuropa", "country": "SE", "city": "Lund", "name": "mmx2-se", "asn": "47155"}, "lon": "57.716667"}, {"lat": "121.0509", "info": {"comment": "ASTI", "country": "PH", "city": "Quezon City", "name": "mnl-ph", "asn": "9821"}, "lon": "14.6488"}, {"lat": "-77.4755556", "info": {"comment": "Residential (Verizon Fios)", "country": "VA", "city": "Manassas", "name": "mnz-us", "asn": "701"}, "lon": "38.7508333"}, {"lat": "57.4797222", "info": {"comment": "Mauritius IXP (MIXP)", "country": "MU", "city": "Ebene", "name": "mru-mu", "asn": "327821"}, "lon": "-20.2438889"}, {"lat": "-88.7980556", "info": {"comment": "Residential (Comcast Business Broadband)", "country": "CA", "city": "Carmel", "name": "mry-us", "asn": "7922"}, "lon": "44.4458333"}, {"lat": "5.890796", "info": {"comment": "Residential (Ziggo)", "country": "NL", "city": "Gulpen", "name": "mst-nl", "asn": "9143"}, "lon": "50.815591"}, {"lat": "-90.0750000", "info": {"comment": "Residential (Cox Broadband)", "country": "LA", "city": "New Orleans", "name": "msy-us", "asn": "22773"}, "lon": "29.9544444"}, {"lat": "-98.15", "info": {"comment": "NIC Mexico \u2605", "country": "MX", "city": "Monterrey", "name": "mty-mx", "asn": "22894"}, "lon": "20.654167"}, {"lat": "11.5833", "info": {"comment": "Technical University of Munich", "country": "DE", "city": "Munich", "name": "muc-de", "asn": "12816"}, "lon": "48.1500"}, {"lat": "14.25", "info": {"comment": "University of Napoli", "country": "IT", "city": "Napoli", "name": "nap-it", "asn": "137"}, "lon": "40.833333"}, {"lat": "36.8166667", "info": {"comment": "Kenia IXP (KIXP; Liquid Telecom)", "country": "KE", "city": "Nairobi", "name": "nbo-ke", "asn": "30844"}, "lon": "-1.2833333"}, {"lat": "7.096447", "info": {"comment": "Residential (Free.fr)", "country": "FR", "city": "Biot", "name": "nce-fr", "asn": "12322"}, "lon": "43.627234"}, {"lat": "7.096447", "info": {"comment": "Eurocom", "country": "FR", "city": "Biot", "name": "nce2-fr", "asn": "3215"}, "lon": "43.627234"}, {"lat": "33.3666667", "info": {"comment": "Cablenet Communication Systems", "country": "CY", "city": "Nicosia", "name": "nic-cy", "asn": "35432"}, "lon": "35.1666667"}, {"lat": "139.751389", "info": {"comment": "APAN", "country": "JP", "city": "Tokyo", "name": "nrt-jp", "asn": "7660"}, "lon": "35.685"}, {"lat": "139.751389", "info": {"comment": "Residential (Plala NTT broadband)", "country": "JP", "city": "Tokyo", "name": "nrt2-jp", "asn": "2497"}, "lon": "35.685"}, {"lat": "-77.9275000", "info": {"comment": "International Computer Science Institute (ICSI) \u2605", "country": "CA", "city": "Berkeley", "name": "oak-us", "asn": "25"}, "lon": "39.5030556"}, {"lat": "-77.9275000", "info": {"comment": "Residential (T-mobile 3G)", "country": "CA", "city": "Berkeley", "name": "oak2-us", "asn": "21928"}, "lon": "39.5030556"}, {"lat": "-77.9275000", "info": {"comment": "Residential (ATT U-verse)", "country": "CA", "city": "Berkeley", "name": "oak3-us", "asn": "7018"}, "lon": "39.5030556"}, {"lat": "-92.3686111", "info": {"comment": "Residential (ATT U-verse)", "country": "CA", "city": "Oakland", "name": "oak5-us", "asn": "7018"}, "lon": "45.9375000"}, {"lat": "-87.8247222", "info": {"comment": "DePaul University", "country": "IL", "city": "Chicago", "name": "ord-us", "asn": "20130_54728"}, "lon": "42.5861111"}, {"lat": "5.737419", "info": {"comment": "Residential (Iliad/Free France)", "country": "FR", "city": "Paris", "name": "ory-fr", "asn": "12322"}, "lon": "45.639725"}, {"lat": "10.6", "info": {"comment": "Simula Research Laboratory", "country": "NO", "city": "Lysaker", "name": "osl-no", "asn": "224"}, "lon": "59.9"}, {"lat": "10.75", "info": {"comment": "Residential (Canal Digital)", "country": "NO", "city": "Oslo", "name": "osl2-no", "asn": "2119"}, "lon": "59.916667"}, {"lat": "-1.5247222", "info": {"comment": "Onatel", "country": "BF", "city": "Ouagadougou", "name": "oua-bf", "asn": "25543"}, "lon": "12.3702778"}, {"lat": "-1.5247222", "info": {"comment": "Airtel Mobile", "country": "BF", "city": "Ouagadougou", "name": "oua2-bf", "asn": "37577"}, "lon": "12.3702778"}, {"lat": "-79.3705556", "info": {"comment": "Residential (Comcast)", "country": "CA", "city": "Palo Alto", "name": "pao-us", "asn": "33651"}, "lon": "38.4233333"}, {"lat": "110.732778", "info": {"comment": "CNNIC \u2605", "country": "CN", "city": "Beijing", "name": "pek-cn", "asn": "24151"}, "lon": "35.209167"}, {"lat": "115.861397", "info": {"comment": "AARNet \u2605", "country": "AU", "city": "Perth", "name": "per-au", "asn": "7575"}, "lon": "-31.95224"}, {"lat": "-1.641153", "info": {"comment": "Public University of Navarra", "country": "ES", "city": "Pamplona", "name": "pna-es", "asn": "766"}, "lon": "42.814075"}, {"lat": "28.049815", "info": {"comment": "AFRINIC \u2605", "country": "ZA", "city": "Johannesburg", "name": "pry-za", "asn": "33764"}, "lon": "-26.205171"}, {"lat": "9.833333", "info": {"comment": "Residential (Telecom Italia)", "country": "IT", "city": "La Spezia", "name": "psa-it", "asn": "12874"}, "lon": "44.116667"}, {"lat": "10.383333", "info": {"comment": "Residential (Fastweb S.p.A.)", "country": "IT", "city": "Pisa", "name": "psa2-it", "asn": "12874"}, "lon": "43.716667"}, {"lat": "10.383333", "info": {"comment": "Residential (Telecom Italia)", "country": "IT", "city": "Pisa", "name": "psa3-it", "asn": "3269"}, "lon": "43.716667"}, {"lat": "-95.4622222", "info": {"comment": "University of Nevada at Reno", "country": "NV", "city": "Reno", "name": "rno-us", "asn": "3851"}, "lon": "33.6630556"}, {"lat": "-98.2386111", "info": {"comment": "CAIDA", "country": "CA", "city": "San Diego", "name": "san-us", "asn": "1909"}, "lon": "27.7636111"}, {"lat": "-98.2386111", "info": {"comment": "Residential (Cox Broadband)", "country": "CA", "city": "San Diego", "name": "san2-us", "asn": "22773"}, "lon": "27.7636111"}, {"lat": "-98.2386111", "info": {"comment": "HB Networks", "country": "CA", "city": "San Diego", "name": "san3-us", "asn": "22773"}, "lon": "27.7636111"}, {"lat": "-98.2386111", "info": {"comment": "Residential (ATT)", "country": "CA", "city": "San Diego", "name": "san6-us", "asn": "7018"}, "lon": "27.7636111"}, {"lat": "-48.166667", "info": {"comment": "Registro.br", "country": "BR", "city": "Sao Paulo", "name": "sao-br", "asn": "22548"}, "lon": "-5.716667"}, {"lat": "-48.166667", "info": {"comment": "Rede ANSP / Projeto NARA", "country": "BR", "city": "Sao Paulo", "name": "sao2-br", "asn": "1251"}, "lon": "-5.716667"}, {"lat": "-70.666667", "info": {"comment": "NIC Chile", "country": "CL", "city": "Santiago", "name": "scl-cl", "asn": "27678"}, "lon": "-33.45"}, {"lat": "-70.666667", "info": {"comment": "VTR", "country": "CL", "city": "Santiago", "name": "scl2-cl", "asn": "22047"}, "lon": "-33.45"}, {"lat": "34.795556", "info": {"comment": "Tel Aviv Univ.", "country": "IL", "city": "Ramat Aviv", "name": "sdv-il", "asn": "378"}, "lon": "32.110556"}, {"lat": "-122.3308333", "info": {"comment": "University of Washington", "country": "WA", "city": "Seattle", "name": "sea-us", "asn": "73"}, "lon": "47.6063889"}, {"lat": "116.421667", "info": {"comment": "Northeastern University", "country": "CN", "city": "Shenyang", "name": "she-cn", "asn": "4538"}, "lon": "23.391184"}, {"lat": "103.8558333", "info": {"comment": "DCS1 Pte Ltd", "country": "SG", "city": "Singapore", "name": "sin-sg", "asn": "37989"}, "lon": "1.2930556"}, {"lat": "103.8558333", "info": {"comment": "Openmirrors.asia - at Equinix SG1", "country": "SG", "city": "Singapore", "name": "sin2-sg", "asn": "45494"}, "lon": "1.2930556"}, {"lat": "103.8558333", "info": {"comment": "Residential (M1 Net)", "country": "SG", "city": "Singapore", "name": "sin3-sg", "asn": "4773"}, "lon": "1.2930556"}, {"lat": "-98.3055556", "info": {"comment": "Hurricane Electric \u2605", "country": "CA", "city": "San Jose", "name": "sjc2-us", "asn": "6939"}, "lon": "27.5833333"}, {"lat": "18.3833333", "info": {"comment": "Residential (BH Telecom)", "country": "BA", "city": "Sarajevo", "name": "sjj-ba", "asn": "9146"}, "lon": "43.85"}, {"lat": "-84.083333", "info": {"comment": "Sistemas Fratec", "country": "CR", "city": "San Jose", "name": "sjo-cr", "asn": "262149"}, "lon": "9.933333"}, {"lat": "-6.2930556", "info": {"comment": "University of Limerick", "country": "IE", "city": "Limerick", "name": "snn-ie", "asn": "1213"}, "lon": "52.7327778"}, {"lat": "23.3166667", "info": {"comment": "Neterra Ltd", "country": "BG", "city": "Sofia", "name": "sof-bg", "asn": "34224"}, "lon": "42.6833333"}, {"lat": "23.3166667", "info": {"comment": "NetIX", "country": "BG", "city": "Sofia", "name": "sof2-bg", "asn": "57463"}, "lon": "42.6833333"}, {"lat": "-122.2352778", "info": {"comment": "Internet Systems Consortium", "country": "CA", "city": "Redwood City", "name": "sql-us", "asn": "1280"}, "lon": "37.4852778"}, {"lat": "151.205475", "info": {"comment": "AARNet", "country": "AU", "city": "Sydney", "name": "syd-au", "asn": "7575"}, "lon": "-33.861481"}, {"lat": "-111.133333", "info": {"comment": "Mexican Internet Exchange (MIE)", "country": "MX", "city": "Tijuana", "name": "tij-mx", "asn": "174"}, "lon": "25.25"}, {"lat": "24.7280556", "info": {"comment": "Residential (Elion)", "country": "EE", "city": "Tallinn", "name": "tll2-ee", "asn": "3249"}, "lon": "59.4338889"}, {"lat": "46.1833333", "info": {"comment": "Madagascar IX", "country": "MG", "city": "Antananarivo", "name": "tnr-mg", "asn": "37608"}, "lon": "-23.9833333"}, {"lat": "120.9713889", "info": {"comment": "TWAREN", "country": "TW", "city": "Hsinchu", "name": "tpe-tw", "asn": "7539"}, "lon": "24.8047222"}, {"lat": "-95.9925000", "info": {"comment": "True Digital Security (Cox Communication)", "country": "OK", "city": "Tulsa", "name": "tul-us", "asn": "22773"}, "lon": "36.1538889"}, {"lat": "-95.9925000", "info": {"comment": "Residential (ATT U-verse)", "country": "OK", "city": "Tulsa", "name": "tul2-us", "asn": "7018"}, "lon": "36.1538889"}, {"lat": "16.366667", "info": {"comment": "FunkFeuer", "country": "AT", "city": "Vienna", "name": "vie-at", "asn": "35492"}, "lon": "48.2"}, {"lat": "37.615556", "info": {"comment": "the open Net", "country": "RU", "city": "Moscow", "name": "vko-ru", "asn": "8331"}, "lon": "55.752222"}, {"lat": "-109.7169444", "info": {"comment": "NCAR", "country": "CO", "city": "Boulder", "name": "wbu-us", "asn": "194"}, "lon": "42.7483333"}, {"lat": "-109.7169444", "info": {"comment": "Residential (Comcast Broadband)", "country": "CO", "city": "Boulder", "name": "wbu2-us", "asn": "7922"}, "lon": "42.7483333"}, {"lat": "174.783333", "info": {"comment": "Residential (Vodafone NZ, High Speed Cable)", "country": "NZ", "city": "Wellington", "name": "wlg-nz", "asn": "4768"}, "lon": "-41.3"}, {"lat": "174.916667", "info": {"comment": "Residential (Spark DSL)", "country": "NZ", "city": "Lower Hutt", "name": "wlg2-nz", "asn": "4771"}, "lon": "-41.216667"}, {"lat": "174.783333", "info": {"comment": ".nz Registry", "country": "NZ", "city": "Wellington", "name": "wlg3-nz", "asn": "38037"}, "lon": "-41.3"}, {"lat": "-98.7680556", "info": {"comment": "Residential (Sonic.net)", "country": "CA", "city": "Santa Cruz", "name": "wvi-us", "asn": "46375"}, "lon": "26.3541667"}, {"lat": "-79.7", "info": {"comment": "Georgian College", "country": "ON", "city": "Barrie", "name": "ylk-ca", "asn": "19764"}, "lon": "44.383333"}, {"lat": "-75.7", "info": {"comment": "Ottawa Internet Exchange", "country": "ON", "city": "Ottawa", "name": "yow-ca", "asn": "10570"}, "lon": "45.416667"}, {"lat": "-75.7", "info": {"comment": "Canarie", "country": "ON", "city": "Ottawa", "name": "yto-ca", "asn": "53904"}, "lon": "45.416667"}, {"lat": "-73.583333", "info": {"comment": "Residential (Videotron)", "country": "QC", "city": "Montreal", "name": "yul-ca", "asn": "5769"}, "lon": "45.5"}, {"lat": "-73.583333", "info": {"comment": "Zerofail", "country": "CA", "city": "Montreal", "name": "yul2-ca", "asn": "40191"}, "lon": "45.5"}, {"lat": "-114.016667", "info": {"comment": "Residential (Telus)", "country": "AB", "city": "Airdrie", "name": "yyc-ca", "asn": "852"}, "lon": "51.266667"}, {"lat": "-79.416667", "info": {"comment": "TorIX \u2605", "country": "ON", "city": "Toronto", "name": "yyz-ca", "asn": "11670"}, "lon": "43.666667"}, {"lat": "8.55", "info": {"comment": "University of Zurich", "country": "CH", "city": "Zurich", "name": "zrh-ch", "asn": "559"}, "lon": "47.366667"}, {"lat": "8.517445", "info": {"comment": "Kantonsschule Zug", "country": "CH", "city": "Zug", "name": "zrh2-ch", "asn": "34288"}, "lon": "47.172421"}]
