[{"lat": "49.027", "info": {"comment": "*", "country": "Port Alberni", "city": "CA", "name": "6453", "asn": "6453"}, "lon": "-124.8461"}, {"lat": "33.0", "info": {"comment": "*", "country": "*", "city": "AF", "name": "55424", "asn": "55424"}, "lon": "65.0"}, {"lat": "51.5085", "info": {"comment": "*", "country": "London", "city": "GB", "name": "6453", "asn": "6453"}, "lon": "-0.1257"}, {"lat": "37.751", "info": {"comment": "*", "country": "*", "city": "US", "name": "174", "asn": "174"}, "lon": "-97.822"}, {"lat": "33.9192", "info": {"comment": "*", "country": "El Segundo", "city": "US", "name": "558", "asn": "558"}, "lon": "-118.4165"}, {"lat": "36.1914", "info": {"comment": "*", "country": "S\u00e9tif", "city": "DZ", "name": "36947", "asn": "36947"}, "lon": "5.4094"}, {"lat": "38.8817", "info": {"comment": "*", "country": "Columbia", "city": "US", "name": "2572", "asn": "2572"}, "lon": "-92.402"}, {"lat": "36.1333", "info": {"comment": "*", "country": "Gibraltar", "city": "GI", "name": "34803", "asn": "34803"}, "lon": "-5.35"}, {"lat": "37.5155", "info": {"comment": "*", "country": "Fremont", "city": "US", "name": "6939", "asn": "6939"}, "lon": "-121.8962"}, {"lat": "47.1449", "info": {"comment": "*", "country": "*", "city": "CH", "name": "9044", "asn": "9044"}, "lon": "8.1551"}, {"lat": "51.5142", "info": {"comment": "*", "country": "London", "city": "GB", "name": "5400", "asn": "5400"}, "lon": "-0.0931"}, {"lat": "31.6133", "info": {"comment": "*", "country": "Kandahar", "city": "AF", "name": "55424", "asn": "55424"}, "lon": "65.7101"}, {"lat": "42.7", "info": {"comment": "*", "country": "*", "city": "BG", "name": "16154", "asn": "16154"}, "lon": "23.3333"}, {"lat": "52.3824", "info": {"comment": "*", "country": "*", "city": "NL", "name": "286", "asn": "286"}, "lon": "4.8995"}, {"lat": "37.751", "info": {"comment": "*", "country": "*", "city": "US", "name": "3356", "asn": "3356"}, "lon": "-97.822"}, {"lat": "35.7463", "info": {"comment": "*", "country": "Raleigh", "city": "US", "name": "31976", "asn": "31976"}, "lon": "-78.7239"}, {"lat": "50.9263", "info": {"comment": "*", "country": "Cologne", "city": "DE", "name": "702", "asn": "702"}, "lon": "6.9011"}, {"lat": "48.7667", "info": {"comment": "*", "country": "Stuttgart", "city": "DE", "name": "33843", "asn": "33843"}, "lon": "9.1833"}, {"lat": "51.2993", "info": {"comment": "*", "country": "*", "city": "DE", "name": "3320", "asn": "3320"}, "lon": "9.491"}, {"lat": "50.9263", "info": {"comment": "*", "country": "Cologne", "city": "DE", "name": "702", "asn": "702"}, "lon": "6.9011"}, {"lat": "-33.494", "info": {"comment": "*", "country": "*", "city": "AU", "name": "4739", "asn": "4739"}, "lon": "143.2104"}, {"lat": "33.0", "info": {"comment": "*", "country": "*", "city": "AF", "name": "131284", "asn": "131284"}, "lon": "65.0"}, {"lat": "47.0", "info": {"comment": "*", "country": "*", "city": "US", "name": "6453", "asn": "6453"}, "lon": "8.0"}, {"lat": "31.5", "info": {"comment": "*", "country": "*", "city": "IL", "name": "378", "asn": "378"}, "lon": "34.75"}, {"lat": "-37.8253", "info": {"comment": "*", "country": "South Wharf", "city": "AU", "name": "4739", "asn": "4739"}, "lon": "144.9522"}, {"lat": "48.8763", "info": {"comment": "*", "country": "Paris", "city": "FR", "name": "8218", "asn": "8218"}, "lon": "2.3183"}, {"lat": "37.751", "info": {"comment": "*", "country": "*", "city": "US", "name": "174", "asn": "174"}, "lon": "-97.822"}, {"lat": "37.5155", "info": {"comment": "*", "country": "Fremont", "city": "US", "name": "6939", "asn": "6939"}, "lon": "-121.8962"}, {"lat": "-31.9007", "info": {"comment": "*", "country": "Perth", "city": "AU", "name": "4739", "asn": "4739"}, "lon": "115.8108"}, {"lat": "52.3824", "info": {"comment": "*", "country": "*", "city": "NL", "name": "286", "asn": "286"}, "lon": "4.8995"}, {"lat": "40.4086", "info": {"comment": "*", "country": "Madrid", "city": "ES", "name": "766", "asn": "766"}, "lon": "-3.6922"}, {"lat": "37.5483", "info": {"comment": "*", "country": "Fremont", "city": "US", "name": "6939", "asn": "6939"}, "lon": "-121.9886"}, {"lat": "44.3833", "info": {"comment": "*", "country": "Norwood", "city": "CA", "name": "23184", "asn": "23184"}, "lon": "-77.9833"}, {"lat": "37.751", "info": {"comment": "*", "country": "*", "city": "US", "name": "17233", "asn": "17233"}, "lon": "-97.822"}, {"lat": "51.5142", "info": {"comment": "*", "country": "London", "city": "GB", "name": "5400", "asn": "5400"}, "lon": "-0.0931"}, {"lat": "49.6867", "info": {"comment": "*", "country": "Bensheim", "city": "DE", "name": "12897", "asn": "12897"}, "lon": "8.6284"}, {"lat": "51.4964", "info": {"comment": "*", "country": "*", "city": "GB", "name": "6461", "asn": "6461"}, "lon": "-0.1224"}, {"lat": "-33.494", "info": {"comment": "*", "country": "*", "city": "AU", "name": "6453", "asn": "6453"}, "lon": "143.2104"}, {"lat": "48.7963", "info": {"comment": "*", "country": "Cachan", "city": "FR", "name": "8218", "asn": "8218"}, "lon": "2.3366"}, {"lat": "43.1479", "info": {"comment": "*", "country": "*", "city": "IT", "name": "6762", "asn": "6762"}, "lon": "12.1097"}, {"lat": "47.0", "info": {"comment": "*", "country": "*", "city": "EU", "name": "1299", "asn": "1299"}, "lon": "8.0"}, {"lat": "51.2993", "info": {"comment": "*", "country": "*", "city": "DE", "name": "2914", "asn": "2914"}, "lon": "9.491"}, {"lat": "51.5085", "info": {"comment": "*", "country": "London", "city": "GB", "name": "6453", "asn": "6453"}, "lon": "-0.1257"}, {"lat": "52.2333", "info": {"comment": "*", "country": "*", "city": "PL", "name": "197181", "asn": "197181"}, "lon": "21.0167"}, {"lat": "48.2", "info": {"comment": "*", "country": "Vienna", "city": "AT", "name": "1299", "asn": "1299"}, "lon": "16.3667"}, {"lat": "37.5155", "info": {"comment": "*", "country": "Fremont", "city": "US", "name": "6939", "asn": "6939"}, "lon": "-121.8962"}, {"lat": "-33.8424", "info": {"comment": "*", "country": "Kurraba Point", "city": "AU", "name": "4739", "asn": "4739"}, "lon": "151.2226"}, {"lat": "37.5155", "info": {"comment": "*", "country": "Fremont", "city": "US", "name": "6939", "asn": "6939"}, "lon": "-121.8962"}, {"lat": "34.5167", "info": {"comment": "*", "country": "Kabul", "city": "AF", "name": "55330", "asn": "55330"}, "lon": "69.1833"}, {"lat": "37.751", "info": {"comment": "*", "country": "*", "city": "US", "name": "174", "asn": "174"}, "lon": "-97.822"}, {"lat": "37.751", "info": {"comment": "*", "country": "*", "city": "US", "name": "174", "asn": "174"}, "lon": "-97.822"}, {"lat": "47.2667", "info": {"comment": "*", "country": "Innsbruck", "city": "AT", "name": "31394", "asn": "31394"}, "lon": "11.4"}, {"lat": "-33.494", "info": {"comment": "*", "country": "*", "city": "AU", "name": "2764", "asn": "2764"}, "lon": "143.2104"}, {"lat": "51.4964", "info": {"comment": "*", "country": "*", "city": "GB", "name": "3356", "asn": "3356"}, "lon": "-0.1224"}, {"lat": "37.751", "info": {"comment": "*", "country": "*", "city": "US", "name": "174", "asn": "174"}, "lon": "-97.822"}, {"lat": "57.6333", "info": {"comment": "*", "country": "Visby", "city": "SE", "name": "30795", "asn": "30795"}, "lon": "18.3"}, {"lat": "51.5142", "info": {"comment": "*", "country": "London", "city": "GB", "name": "29527", "asn": "29527"}, "lon": "-0.0931"}, {"lat": "37.5483", "info": {"comment": "*", "country": "Fremont", "city": "US", "name": "6939", "asn": "6939"}, "lon": "-121.9886"}, {"lat": "43.2854", "info": {"comment": "*", "country": "Marseille", "city": "FR", "name": "6939", "asn": "6939"}, "lon": "5.3761"}, {"lat": "22.3333", "info": {"comment": "*", "country": "Sha Po Kong", "city": "HK", "name": "55933_133731", "asn": "55933_133731"}, "lon": "114.2"}, {"lat": "37.5155", "info": {"comment": "*", "country": "Fremont", "city": "US", "name": "6939", "asn": "6939"}, "lon": "-121.8962"}, {"lat": "39.7351", "info": {"comment": "*", "country": "Wilmington", "city": "US", "name": "6453", "asn": "6453"}, "lon": "-75.6684"}, {"lat": "38.8817", "info": {"comment": "*", "country": "Columbia", "city": "US", "name": "2572", "asn": "2572"}, "lon": "-92.402"}, {"lat": "37.5155", "info": {"comment": "*", "country": "Fremont", "city": "US", "name": "6939", "asn": "6939"}, "lon": "-121.8962"}, {"lat": "49.6867", "info": {"comment": "*", "country": "Bensheim", "city": "DE", "name": "12897", "asn": "12897"}, "lon": "8.6284"}, {"lat": "53.7", "info": {"comment": "*", "country": "Chojnice", "city": "PL", "name": "5617", "asn": "5617"}, "lon": "17.5667"}, {"lat": "43.6319", "info": {"comment": "*", "country": "*", "city": "CA", "name": "577", "asn": "577"}, "lon": "-79.3716"}, {"lat": "47.0", "info": {"comment": "*", "country": "*", "city": "US", "name": "174", "asn": "174"}, "lon": "8.0"}, {"lat": "47.0", "info": {"comment": "*", "country": "*", "city": "US", "name": "6453", "asn": "6453"}, "lon": "8.0"}, {"lat": "47.0", "info": {"comment": "*", "country": "*", "city": "US", "name": "174", "asn": "174"}, "lon": "8.0"}, {"lat": "43.6319", "info": {"comment": "*", "country": "*", "city": "CA", "name": "577", "asn": "577"}, "lon": "-79.3716"}, {"lat": "51.5085", "info": {"comment": "*", "country": "London", "city": "GB", "name": "6453", "asn": "6453"}, "lon": "-0.1257"}, {"lat": "47.0", "info": {"comment": "*", "country": "*", "city": "EU", "name": "1299", "asn": "1299"}, "lon": "8.0"}, {"lat": "47.0", "info": {"comment": "*", "country": "*", "city": "US", "name": "6453", "asn": "6453"}, "lon": "8.0"}, {"lat": "42.7", "info": {"comment": "*", "country": "*", "city": "BG", "name": "8262", "asn": "8262"}, "lon": "23.3333"}, {"lat": "37.3744", "info": {"comment": "*", "country": "San Jose", "city": "US", "name": "3671", "asn": "3671"}, "lon": "-121.7582"}, {"lat": "37.5155", "info": {"comment": "*", "country": "Fremont", "city": "US", "name": "6939", "asn": "6939"}, "lon": "-121.8962"}, {"lat": "41.0667", "info": {"comment": "*", "country": "Newton", "city": "US", "name": "10848", "asn": "10848"}, "lon": "-74.8128"}, {"lat": "50.2667", "info": {"comment": "*", "country": "Katowice", "city": "PL", "name": "5588", "asn": "5588"}, "lon": "19.0167"}, {"lat": "39.7351", "info": {"comment": "*", "country": "Wilmington", "city": "US", "name": "6453", "asn": "6453"}, "lon": "-75.6684"}, {"lat": "-22.8305", "info": {"comment": "*", "country": "*", "city": "BR", "name": "22548", "asn": "22548"}, "lon": "-43.2192"}, {"lat": "37.751", "info": {"comment": "*", "country": "*", "city": "US", "name": "174", "asn": "174"}, "lon": "-97.822"}, {"lat": "51.2993", "info": {"comment": "*", "country": "*", "city": "DE", "name": "3257_4436", "asn": "3257_4436"}, "lon": "9.491"}, {"lat": "36.1914", "info": {"comment": "*", "country": "S\u00e9tif", "city": "DZ", "name": "36947", "asn": "36947"}, "lon": "5.4094"}, {"lat": "37.751", "info": {"comment": "*", "country": "*", "city": "US", "name": "174", "asn": "174"}, "lon": "-97.822"}, {"lat": "43.6319", "info": {"comment": "*", "country": "*", "city": "CA", "name": "577", "asn": "577"}, "lon": "-79.3716"}, {"lat": "37.751", "info": {"comment": "*", "country": "*", "city": "US", "name": "174", "asn": "174"}, "lon": "-97.822"}, {"lat": "33.0", "info": {"comment": "*", "country": "*", "city": "AF", "name": "55424", "asn": "55424"}, "lon": "65.0"}, {"lat": "-33.7667", "info": {"comment": "*", "country": "Brookvale", "city": "AU", "name": "6453", "asn": "6453"}, "lon": "151.2667"}, {"lat": "40.4172", "info": {"comment": "*", "country": "*", "city": "ES", "name": "6453", "asn": "6453"}, "lon": "-3.684"}, {"lat": "-34.6033", "info": {"comment": "*", "country": "Buenos Aires", "city": "AR", "name": "18747", "asn": "18747"}, "lon": "-58.3816"}, {"lat": "37.751", "info": {"comment": "*", "country": "*", "city": "US", "name": "174", "asn": "174"}, "lon": "-97.822"}, {"lat": "52.3824", "info": {"comment": "*", "country": "*", "city": "NL", "name": "286", "asn": "286"}, "lon": "4.8995"}, {"lat": "52.3824", "info": {"comment": "*", "country": "*", "city": "NL", "name": "286", "asn": "286"}, "lon": "4.8995"}, {"lat": "47.0", "info": {"comment": "*", "country": "*", "city": "US", "name": "174", "asn": "174"}, "lon": "8.0"}, {"lat": "39.7814", "info": {"comment": "*", "country": "Aurora", "city": "US", "name": "3356", "asn": "3356"}, "lon": "-104.7029"}, {"lat": "51.5142", "info": {"comment": "*", "country": "London", "city": "GB", "name": "5400", "asn": "5400"}, "lon": "-0.0931"}, {"lat": "43.5469", "info": {"comment": "*", "country": "Boise", "city": "US", "name": "7385", "asn": "7385"}, "lon": "-116.2913"}, {"lat": "34.5167", "info": {"comment": "*", "country": "Kabul", "city": "AF", "name": "55330", "asn": "55330"}, "lon": "69.1833"}, {"lat": "37.751", "info": {"comment": "*", "country": "*", "city": "US", "name": "7385", "asn": "7385"}, "lon": "-97.822"}, {"lat": "37.751", "info": {"comment": "*", "country": "*", "city": "US", "name": "174", "asn": "174"}, "lon": "-97.822"}, {"lat": "37.5483", "info": {"comment": "*", "country": "Fremont", "city": "US", "name": "6939", "asn": "6939"}, "lon": "-121.9886"}, {"lat": "51.2993", "info": {"comment": "*", "country": "*", "city": "DE", "name": "3320", "asn": "3320"}, "lon": "9.491"}, {"lat": "22.2833", "info": {"comment": "*", "country": "Long Keng", "city": "HK", "name": "6453", "asn": "6453"}, "lon": "114.15"}, {"lat": "37.5155", "info": {"comment": "*", "country": "Fremont", "city": "US", "name": "6939", "asn": "6939"}, "lon": "-121.8962"}, {"lat": "55.7386", "info": {"comment": "*", "country": "*", "city": "RU", "name": "3216", "asn": "3216"}, "lon": "37.6068"}, {"lat": "44.0364", "info": {"comment": "*", "country": "Eugene", "city": "US", "name": "3582", "asn": "3582"}, "lon": "-123.0547"}, {"lat": "43.6319", "info": {"comment": "*", "country": "*", "city": "CA", "name": "577", "asn": "577"}, "lon": "-79.3716"}, {"lat": "47.0", "info": {"comment": "*", "country": "*", "city": "US", "name": "174", "asn": "174"}, "lon": "8.0"}, {"lat": "40.6441", "info": {"comment": "*", "country": "Brooklyn", "city": "US", "name": "6453", "asn": "6453"}, "lon": "-73.9779"}, {"lat": "47.0", "info": {"comment": "*", "country": "*", "city": "US", "name": "174", "asn": "174"}, "lon": "8.0"}, {"lat": "47.1449", "info": {"comment": "*", "country": "*", "city": "CH", "name": "6730", "asn": "6730"}, "lon": "8.1551"}, {"lat": "34.3482", "info": {"comment": "*", "country": "Herat", "city": "AF", "name": "55330", "asn": "55330"}, "lon": "62.1997"}, {"lat": "37.751", "info": {"comment": "*", "country": "*", "city": "US", "name": "7385", "asn": "7385"}, "lon": "-97.822"}, {"lat": "34.053", "info": {"comment": "*", "country": "Los Angeles", "city": "US", "name": "32743", "asn": "32743"}, "lon": "-118.2642"}, {"lat": "39.7351", "info": {"comment": "*", "country": "Wilmington", "city": "US", "name": "6453", "asn": "6453"}, "lon": "-75.6684"}, {"lat": "49.0986", "info": {"comment": "*", "country": "Delta", "city": "CA", "name": "22799", "asn": "22799"}, "lon": "-123.0318"}, {"lat": "44.8186", "info": {"comment": "*", "country": "Belgrade", "city": "RS", "name": "8400", "asn": "8400"}, "lon": "20.4681"}, {"lat": "47.0", "info": {"comment": "*", "country": "*", "city": "US", "name": "6453", "asn": "6453"}, "lon": "8.0"}, {"lat": "57.6333", "info": {"comment": "*", "country": "Visby", "city": "SE", "name": "30795", "asn": "30795"}, "lon": "18.3"}, {"lat": "-33.494", "info": {"comment": "*", "country": "*", "city": "AU", "name": "4739", "asn": "4739"}, "lon": "143.2104"}, {"lat": "47.1449", "info": {"comment": "*", "country": "*", "city": "CH", "name": "13030", "asn": "13030"}, "lon": "8.1551"}, {"lat": "52.2666", "info": {"comment": "*", "country": "Nieuw-Vennep", "city": "NL", "name": "20857", "asn": "20857"}, "lon": "4.6169"}, {"lat": "37.5155", "info": {"comment": "*", "country": "Fremont", "city": "US", "name": "6939", "asn": "6939"}, "lon": "-121.8962"}, {"lat": "47.0", "info": {"comment": "*", "country": "*", "city": "US", "name": "6453", "asn": "6453"}, "lon": "8.0"}, {"lat": "37.5155", "info": {"comment": "*", "country": "Fremont", "city": "US", "name": "6939", "asn": "6939"}, "lon": "-121.8962"}, {"lat": "18.5333", "info": {"comment": "*", "country": "Pune", "city": "IN", "name": "6453", "asn": "6453"}, "lon": "73.8667"}, {"lat": "45.399", "info": {"comment": "*", "country": "Ottawa", "city": "CA", "name": "29773", "asn": "29773"}, "lon": "-75.6871"}, {"lat": "40.7209", "info": {"comment": "*", "country": "Jersey City", "city": "US", "name": "14492", "asn": "14492"}, "lon": "-74.0468"}, {"lat": "43.5469", "info": {"comment": "*", "country": "Boise", "city": "US", "name": "7385", "asn": "7385"}, "lon": "-116.2913"}, {"lat": "37.5155", "info": {"comment": "*", "country": "Fremont", "city": "US", "name": "6939", "asn": "6939"}, "lon": "-121.8962"}, {"lat": "47.0", "info": {"comment": "*", "country": "*", "city": "US", "name": "174", "asn": "174"}, "lon": "8.0"}, {"lat": "33.0", "info": {"comment": "*", "country": "*", "city": "AF", "name": "38742", "asn": "38742"}, "lon": "65.0"}, {"lat": "33.6189", "info": {"comment": "*", "country": "Newport Beach", "city": "US", "name": "5726", "asn": "5726"}, "lon": "-117.929"}, {"lat": "37.5483", "info": {"comment": "*", "country": "Fremont", "city": "US", "name": "6939", "asn": "6939"}, "lon": "-121.9886"}, {"lat": "38.7025", "info": {"comment": "*", "country": "Lisbon", "city": "PT", "name": "8426", "asn": "8426"}, "lon": "-9.2294"}, {"lat": "52.2333", "info": {"comment": "*", "country": "*", "city": "PL", "name": "6453", "asn": "6453"}, "lon": "21.0167"}, {"lat": "37.751", "info": {"comment": "*", "country": "*", "city": "US", "name": "10259", "asn": "10259"}, "lon": "-97.822"}, {"lat": "22.25", "info": {"comment": "*", "country": "*", "city": "HK", "name": "17444", "asn": "17444"}, "lon": "114.1667"}, {"lat": "43.1479", "info": {"comment": "*", "country": "*", "city": "IT", "name": "6762", "asn": "6762"}, "lon": "12.1097"}, {"lat": "46.2352", "info": {"comment": "*", "country": "Geneva", "city": "CH", "name": "12350", "asn": "12350"}, "lon": "6.1069"}, {"lat": "47.0", "info": {"comment": "*", "country": "*", "city": "EU", "name": "1299", "asn": "1299"}, "lon": "8.0"}, {"lat": "48.7963", "info": {"comment": "*", "country": "Cachan", "city": "FR", "name": "8218", "asn": "8218"}, "lon": "2.3366"}, {"lat": "39.7351", "info": {"comment": "*", "country": "Wilmington", "city": "US", "name": "6453", "asn": "6453"}, "lon": "-75.6684"}, {"lat": "48.9167", "info": {"comment": "*", "country": "Paris", "city": "FR", "name": "6453", "asn": "6453"}, "lon": "2.3833"}, {"lat": "48.8582", "info": {"comment": "*", "country": "*", "city": "FR", "name": "3257_4436", "asn": "3257_4436"}, "lon": "2.3387"}, {"lat": "37.5155", "info": {"comment": "*", "country": "Fremont", "city": "US", "name": "6939", "asn": "6939"}, "lon": "-121.8962"}, {"lat": "47.1449", "info": {"comment": "*", "country": "*", "city": "CH", "name": "34554", "asn": "34554"}, "lon": "8.1551"}, {"lat": "48.9167", "info": {"comment": "*", "country": "Paris", "city": "FR", "name": "6453", "asn": "6453"}, "lon": "2.3833"}, {"lat": "51.5142", "info": {"comment": "*", "country": "London", "city": "GB", "name": "5400", "asn": "5400"}, "lon": "-0.0931"}, {"lat": "38.8817", "info": {"comment": "*", "country": "Columbia", "city": "US", "name": "2572", "asn": "2572"}, "lon": "-92.402"}, {"lat": "39.0393", "info": {"comment": "*", "country": "Lawrence", "city": "US", "name": "11317", "asn": "11317"}, "lon": "-95.2087"}, {"lat": "33.0", "info": {"comment": "*", "country": "*", "city": "AF", "name": "55424", "asn": "55424"}, "lon": "65.0"}, {"lat": "37.5155", "info": {"comment": "*", "country": "Fremont", "city": "US", "name": "6939", "asn": "6939"}, "lon": "-121.8962"}, {"lat": "52.2333", "info": {"comment": "*", "country": "*", "city": "PL", "name": "24724", "asn": "24724"}, "lon": "21.0167"}, {"lat": "33.0", "info": {"comment": "*", "country": "*", "city": "AF", "name": "55424", "asn": "55424"}, "lon": "65.0"}, {"lat": "47.0", "info": {"comment": "*", "country": "*", "city": "US", "name": "174", "asn": "174"}, "lon": "8.0"}, {"lat": "45.498", "info": {"comment": "*", "country": "Montreal", "city": "CA", "name": "6453", "asn": "6453"}, "lon": "-73.5472"}, {"lat": "37.5155", "info": {"comment": "*", "country": "Fremont", "city": "US", "name": "6939", "asn": "6939"}, "lon": "-121.8962"}, {"lat": "37.5155", "info": {"comment": "*", "country": "Fremont", "city": "US", "name": "6939", "asn": "6939"}, "lon": "-121.8962"}, {"lat": "37.5483", "info": {"comment": "*", "country": "Fremont", "city": "US", "name": "6939", "asn": "6939"}, "lon": "-121.9886"}, {"lat": "37.751", "info": {"comment": "*", "country": "*", "city": "US", "name": "3356", "asn": "3356"}, "lon": "-97.822"}, {"lat": "37.751", "info": {"comment": "*", "country": "*", "city": "US", "name": "7018", "asn": "7018"}, "lon": "-97.822"}, {"lat": "34.3482", "info": {"comment": "*", "country": "Herat", "city": "AF", "name": "55330", "asn": "55330"}, "lon": "62.1997"}, {"lat": "51.5142", "info": {"comment": "*", "country": "London", "city": "GB", "name": "5400", "asn": "5400"}, "lon": "-0.0931"}, {"lat": "48.9167", "info": {"comment": "*", "country": "Paris", "city": "FR", "name": "8426", "asn": "8426"}, "lon": "2.3833"}, {"lat": "51.2993", "info": {"comment": "*", "country": "*", "city": "DE", "name": "3257_4436", "asn": "3257_4436"}, "lon": "9.491"}, {"lat": "51.2993", "info": {"comment": "*", "country": "*", "city": "DE", "name": "3320", "asn": "3320"}, "lon": "9.491"}, {"lat": "37.5155", "info": {"comment": "*", "country": "Fremont", "city": "US", "name": "6939", "asn": "6939"}, "lon": "-121.8962"}, {"lat": "1.3667", "info": {"comment": "*", "country": "*", "city": "SG", "name": "6453", "asn": "6453"}, "lon": "103.8"}, {"lat": "38.8817", "info": {"comment": "*", "country": "Columbia", "city": "US", "name": "2572", "asn": "2572"}, "lon": "-92.402"}, {"lat": "1.3667", "info": {"comment": "*", "country": "*", "city": "SG", "name": "6453", "asn": "6453"}, "lon": "103.8"}, {"lat": "51.5085", "info": {"comment": "*", "country": "London", "city": "GB", "name": "2914", "asn": "2914"}, "lon": "-0.1257"}, {"lat": "37.5483", "info": {"comment": "*", "country": "Fremont", "city": "US", "name": "6939", "asn": "6939"}, "lon": "-121.9886"}, {"lat": "52.3824", "info": {"comment": "*", "country": "*", "city": "NL", "name": "286", "asn": "286"}, "lon": "4.8995"}, {"lat": "47.0", "info": {"comment": "*", "country": "*", "city": "US", "name": "6453", "asn": "6453"}, "lon": "8.0"}, {"lat": "47.0", "info": {"comment": "*", "country": "*", "city": "US", "name": "6453", "asn": "6453"}, "lon": "8.0"}, {"lat": "65.0", "info": {"comment": "*", "country": "*", "city": "IS", "name": "15474", "asn": "15474"}, "lon": "-18.0"}, {"lat": "48.2", "info": {"comment": "*", "country": "Vienna", "city": "AT", "name": "6939", "asn": "6939"}, "lon": "16.3667"}, {"lat": "52.106", "info": {"comment": "*", "country": "Utrecht", "city": "NL", "name": "3356", "asn": "3356"}, "lon": "5.1032"}, {"lat": "55.7386", "info": {"comment": "*", "country": "*", "city": "RU", "name": "3277", "asn": "3277"}, "lon": "37.6068"}, {"lat": "37.5155", "info": {"comment": "*", "country": "Fremont", "city": "US", "name": "6939", "asn": "6939"}, "lon": "-121.8962"}, {"lat": "34.5167", "info": {"comment": "*", "country": "Kabul", "city": "AF", "name": "55330", "asn": "55330"}, "lon": "69.1833"}, {"lat": "37.751", "info": {"comment": "*", "country": "*", "city": "US", "name": "174", "asn": "174"}, "lon": "-97.822"}, {"lat": "44.8558", "info": {"comment": "*", "country": "Eden Prairie", "city": "US", "name": "8015", "asn": "8015"}, "lon": "-93.4408"}, {"lat": "48.8582", "info": {"comment": "*", "country": "*", "city": "FR", "name": "13273", "asn": "13273"}, "lon": "2.3387"}, {"lat": "34.5167", "info": {"comment": "*", "country": "Kabul", "city": "AF", "name": "55330", "asn": "55330"}, "lon": "69.1833"}, {"lat": "52.3824", "info": {"comment": "*", "country": "*", "city": "NL", "name": "286", "asn": "286"}, "lon": "4.8995"}, {"lat": "47.0", "info": {"comment": "*", "country": "*", "city": "US", "name": "6453", "asn": "6453"}, "lon": "8.0"}, {"lat": "43.1479", "info": {"comment": "*", "country": "*", "city": "IT", "name": "6762", "asn": "6762"}, "lon": "12.1097"}, {"lat": "52.3824", "info": {"comment": "*", "country": "*", "city": "NL", "name": "286", "asn": "286"}, "lon": "4.8995"}, {"lat": "-33.494", "info": {"comment": "*", "country": "*", "city": "AU", "name": "2764", "asn": "2764"}, "lon": "143.2104"}, {"lat": "37.5155", "info": {"comment": "*", "country": "Fremont", "city": "US", "name": "6939", "asn": "6939"}, "lon": "-121.8962"}, {"lat": "37.5155", "info": {"comment": "*", "country": "Fremont", "city": "US", "name": "6939", "asn": "6939"}, "lon": "-121.8962"}, {"lat": "47.0", "info": {"comment": "*", "country": "*", "city": "EU", "name": "1299", "asn": "1299"}, "lon": "8.0"}, {"lat": "37.5155", "info": {"comment": "*", "country": "Fremont", "city": "US", "name": "6939", "asn": "6939"}, "lon": "-121.8962"}, {"lat": "33.7866", "info": {"comment": "*", "country": "Los Angeles", "city": "US", "name": "47", "asn": "47"}, "lon": "-118.2987"}, {"lat": "*", "info": {"comment": "*", "country": "*", "city": "*", "name": "*", "asn": "*"}, "lon": "*"}, {"lat": "43.6319", "info": {"comment": "*", "country": "*", "city": "CA", "name": "852", "asn": "852"}, "lon": "-79.3716"}, {"lat": "37.5155", "info": {"comment": "*", "country": "Fremont", "city": "US", "name": "6939", "asn": "6939"}, "lon": "-121.8962"}, {"lat": "51.5142", "info": {"comment": "*", "country": "London", "city": "GB", "name": "5400", "asn": "5400"}, "lon": "-0.0931"}, {"lat": "37.751", "info": {"comment": "*", "country": "*", "city": "US", "name": "3549", "asn": "3549"}, "lon": "-97.822"}, {"lat": "36.1914", "info": {"comment": "*", "country": "S\u00e9tif", "city": "DZ", "name": "36947", "asn": "36947"}, "lon": "5.4094"}, {"lat": "48.9167", "info": {"comment": "*", "country": "Paris", "city": "FR", "name": "6453", "asn": "6453"}, "lon": "2.3833"}, {"lat": "48.9167", "info": {"comment": "*", "country": "Paris", "city": "FR", "name": "6453", "asn": "6453"}, "lon": "2.3833"}, {"lat": "-33.494", "info": {"comment": "*", "country": "*", "city": "AU", "name": "4739", "asn": "4739"}, "lon": "143.2104"}, {"lat": "39.7351", "info": {"comment": "*", "country": "Wilmington", "city": "US", "name": "6453", "asn": "6453"}, "lon": "-75.6684"}, {"lat": "48.8582", "info": {"comment": "*", "country": "*", "city": "FR", "name": "6453", "asn": "6453"}, "lon": "2.3387"}, {"lat": "37.5483", "info": {"comment": "*", "country": "Fremont", "city": "US", "name": "6939", "asn": "6939"}, "lon": "-121.9886"}, {"lat": "48.8582", "info": {"comment": "*", "country": "*", "city": "FR", "name": "5511", "asn": "5511"}, "lon": "2.3387"}, {"lat": "47.0", "info": {"comment": "*", "country": "*", "city": "EU", "name": "1299", "asn": "1299"}, "lon": "8.0"}, {"lat": "51.5142", "info": {"comment": "*", "country": "London", "city": "GB", "name": "47872", "asn": "47872"}, "lon": "-0.0931"}, {"lat": "47.0", "info": {"comment": "*", "country": "*", "city": "US", "name": "174", "asn": "174"}, "lon": "8.0"}, {"lat": "51.5142", "info": {"comment": "*", "country": "London", "city": "GB", "name": "5400", "asn": "5400"}, "lon": "-0.0931"}, {"lat": "-33.8794", "info": {"comment": "*", "country": "Surry Hills", "city": "AU", "name": "10145", "asn": "10145"}, "lon": "151.2193"}, {"lat": "37.751", "info": {"comment": "*", "country": "*", "city": "US", "name": "174", "asn": "174"}, "lon": "-97.822"}, {"lat": "48.8582", "info": {"comment": "*", "country": "*", "city": "FR", "name": "6453", "asn": "6453"}, "lon": "2.3387"}, {"lat": "49.9808", "info": {"comment": "*", "country": "Kharkiv", "city": "UA", "name": "35320", "asn": "35320"}, "lon": "36.2527"}, {"lat": "*", "info": {"comment": "*", "country": "*", "city": "*", "name": "*", "asn": "*"}, "lon": "*"}, {"lat": "37.5155", "info": {"comment": "*", "country": "Fremont", "city": "US", "name": "6939", "asn": "6939"}, "lon": "-121.8962"}, {"lat": "33.0", "info": {"comment": "*", "country": "*", "city": "AF", "name": "55424", "asn": "55424"}, "lon": "65.0"}, {"lat": "36.1914", "info": {"comment": "*", "country": "S\u00e9tif", "city": "DZ", "name": "36947", "asn": "36947"}, "lon": "5.4094"}, {"lat": "37.751", "info": {"comment": "*", "country": "*", "city": "US", "name": "17233", "asn": "17233"}, "lon": "-97.822"}, {"lat": "43.5469", "info": {"comment": "*", "country": "Boise", "city": "US", "name": "7385", "asn": "7385"}, "lon": "-116.2913"}, {"lat": "39.7351", "info": {"comment": "*", "country": "Wilmington", "city": "US", "name": "6453", "asn": "6453"}, "lon": "-75.6684"}, {"lat": "37.751", "info": {"comment": "*", "country": "*", "city": "US", "name": "3549", "asn": "3549"}, "lon": "-97.822"}, {"lat": "52.3824", "info": {"comment": "*", "country": "*", "city": "NL", "name": "43821", "asn": "43821"}, "lon": "4.8995"}, {"lat": "47.0", "info": {"comment": "*", "country": "*", "city": "EU", "name": "1299", "asn": "1299"}, "lon": "8.0"}, {"lat": "47.3126", "info": {"comment": "*", "country": "Saint-Malo-en-Donziois", "city": "FR", "name": "6453", "asn": "6453"}, "lon": "3.2678"}, {"lat": "47.0", "info": {"comment": "*", "country": "*", "city": "EU", "name": "1299", "asn": "1299"}, "lon": "8.0"}, {"lat": "37.5155", "info": {"comment": "*", "country": "Fremont", "city": "US", "name": "6939", "asn": "6939"}, "lon": "-121.8962"}, {"lat": "47.0", "info": {"comment": "*", "country": "*", "city": "US", "name": "174", "asn": "174"}, "lon": "8.0"}, {"lat": "52.3824", "info": {"comment": "*", "country": "*", "city": "NL", "name": "286", "asn": "286"}, "lon": "4.8995"}, {"lat": "34.3482", "info": {"comment": "*", "country": "Herat", "city": "AF", "name": "55330", "asn": "55330"}, "lon": "62.1997"}, {"lat": "33.0", "info": {"comment": "*", "country": "*", "city": "AF", "name": "55424", "asn": "55424"}, "lon": "65.0"}, {"lat": "39.018", "info": {"comment": "*", "country": "Ashburn", "city": "US", "name": "701", "asn": "701"}, "lon": "-77.539"}, {"lat": "50.85", "info": {"comment": "*", "country": "Carseland", "city": "CA", "name": "13911", "asn": "13911"}, "lon": "-113.4667"}, {"lat": "36.1914", "info": {"comment": "*", "country": "S\u00e9tif", "city": "DZ", "name": "36947", "asn": "36947"}, "lon": "5.4094"}, {"lat": "-33.494", "info": {"comment": "*", "country": "*", "city": "AU", "name": "7474", "asn": "7474"}, "lon": "143.2104"}, {"lat": "55.7386", "info": {"comment": "*", "country": "*", "city": "RU", "name": "3216", "asn": "3216"}, "lon": "37.6068"}, {"lat": "51.7309", "info": {"comment": "*", "country": "'s-Hertogenbosch", "city": "NL", "name": "8426", "asn": "8426"}, "lon": "5.3667"}, {"lat": "47.1449", "info": {"comment": "*", "country": "*", "city": "CH", "name": "9044", "asn": "9044"}, "lon": "8.1551"}, {"lat": "47.0", "info": {"comment": "*", "country": "*", "city": "US", "name": "174", "asn": "174"}, "lon": "8.0"}, {"lat": "43.6319", "info": {"comment": "*", "country": "*", "city": "CA", "name": "852", "asn": "852"}, "lon": "-79.3716"}, {"lat": "51.2993", "info": {"comment": "*", "country": "*", "city": "DE", "name": "3320", "asn": "3320"}, "lon": "9.491"}, {"lat": "50.0848", "info": {"comment": "*", "country": "*", "city": "CZ", "name": "42000", "asn": "42000"}, "lon": "14.4112"}, {"lat": "47.0", "info": {"comment": "*", "country": "*", "city": "US", "name": "174", "asn": "174"}, "lon": "8.0"}, {"lat": "52.3824", "info": {"comment": "*", "country": "*", "city": "NL", "name": "286", "asn": "286"}, "lon": "4.8995"}, {"lat": "-33.839", "info": {"comment": "*", "country": "Sydney", "city": "AU", "name": "4826", "asn": "4826"}, "lon": "151.2072"}, {"lat": "39.1252", "info": {"comment": "*", "country": "Pasadena", "city": "US", "name": "174", "asn": "174"}, "lon": "-76.5116"}, {"lat": "48.8763", "info": {"comment": "*", "country": "Paris", "city": "FR", "name": "8218", "asn": "8218"}, "lon": "2.3183"}, {"lat": "48.9167", "info": {"comment": "*", "country": "Paris", "city": "FR", "name": "12670", "asn": "12670"}, "lon": "2.3833"}, {"lat": "38.8817", "info": {"comment": "*", "country": "Columbia", "city": "US", "name": "2572", "asn": "2572"}, "lon": "-92.402"}, {"lat": "-33.494", "info": {"comment": "*", "country": "*", "city": "AU", "name": "4739", "asn": "4739"}, "lon": "143.2104"}, {"lat": "25.8535", "info": {"comment": "*", "country": "Miami", "city": "US", "name": "26742", "asn": "26742"}, "lon": "-80.1811"}, {"lat": "47.0", "info": {"comment": "*", "country": "*", "city": "EU", "name": "1299", "asn": "1299"}, "lon": "8.0"}, {"lat": "39.7351", "info": {"comment": "*", "country": "Wilmington", "city": "US", "name": "6453", "asn": "6453"}, "lon": "-75.6684"}, {"lat": "-33.494", "info": {"comment": "*", "country": "*", "city": "AU", "name": "4739", "asn": "4739"}, "lon": "143.2104"}, {"lat": "-27.4025", "info": {"comment": "*", "country": "Toombul", "city": "AU", "name": "4739", "asn": "4739"}, "lon": "153.0617"}, {"lat": "52.3824", "info": {"comment": "*", "country": "*", "city": "NL", "name": "286", "asn": "286"}, "lon": "4.8995"}, {"lat": "37.5155", "info": {"comment": "*", "country": "Fremont", "city": "US", "name": "6939", "asn": "6939"}, "lon": "-121.8962"}, {"lat": "37.751", "info": {"comment": "*", "country": "*", "city": "US", "name": "174", "asn": "174"}, "lon": "-97.822"}, {"lat": "37.751", "info": {"comment": "*", "country": "*", "city": "US", "name": "174", "asn": "174"}, "lon": "-97.822"}, {"lat": "34.5167", "info": {"comment": "*", "country": "Kabul", "city": "AF", "name": "55330", "asn": "55330"}, "lon": "69.1833"}, {"lat": "36.1333", "info": {"comment": "*", "country": "Gibraltar", "city": "GI", "name": "34803", "asn": "34803"}, "lon": "-5.35"}, {"lat": "47.0", "info": {"comment": "*", "country": "*", "city": "US", "name": "174", "asn": "174"}, "lon": "8.0"}, {"lat": "37.751", "info": {"comment": "*", "country": "*", "city": "US", "name": "6461", "asn": "6461"}, "lon": "-97.822"}, {"lat": "34.5167", "info": {"comment": "*", "country": "Kabul", "city": "AF", "name": "55424", "asn": "55424"}, "lon": "69.1833"}, {"lat": "37.5155", "info": {"comment": "*", "country": "Fremont", "city": "US", "name": "6939", "asn": "6939"}, "lon": "-121.8962"}, {"lat": "47.0", "info": {"comment": "*", "country": "*", "city": "US", "name": "6453", "asn": "6453"}, "lon": "8.0"}, {"lat": "37.5483", "info": {"comment": "*", "country": "Fremont", "city": "US", "name": "6939", "asn": "6939"}, "lon": "-121.9886"}, {"lat": "49.9808", "info": {"comment": "*", "country": "Kharkiv", "city": "UA", "name": "35320", "asn": "35320"}, "lon": "36.2527"}, {"lat": "55.7386", "info": {"comment": "*", "country": "*", "city": "RU", "name": "6903", "asn": "6903"}, "lon": "37.6068"}, {"lat": "37.5155", "info": {"comment": "*", "country": "Fremont", "city": "US", "name": "6939", "asn": "6939"}, "lon": "-121.8962"}, {"lat": "39.7351", "info": {"comment": "*", "country": "Wilmington", "city": "US", "name": "6453", "asn": "6453"}, "lon": "-75.6684"}, {"lat": "37.5155", "info": {"comment": "*", "country": "Fremont", "city": "US", "name": "6939", "asn": "6939"}, "lon": "-121.8962"}, {"lat": "55.7522", "info": {"comment": "*", "country": "Moscow", "city": "RU", "name": "2854", "asn": "2854"}, "lon": "37.6156"}, {"lat": "59.3294", "info": {"comment": "*", "country": "*", "city": "SE", "name": "3301", "asn": "3301"}, "lon": "18.0686"}, {"lat": "48.9167", "info": {"comment": "*", "country": "Paris", "city": "FR", "name": "8218", "asn": "8218"}, "lon": "2.3833"}, {"lat": "47.0", "info": {"comment": "*", "country": "*", "city": "US", "name": "174", "asn": "174"}, "lon": "8.0"}, {"lat": "30.0", "info": {"comment": "*", "country": "*", "city": "PK", "name": "17563", "asn": "17563"}, "lon": "70.0"}, {"lat": "48.8582", "info": {"comment": "*", "country": "*", "city": "FR", "name": "*", "asn": "*"}, "lon": "2.3387"}, {"lat": "43.1479", "info": {"comment": "*", "country": "*", "city": "IT", "name": "12637", "asn": "12637"}, "lon": "12.1097"}, {"lat": "52.25", "info": {"comment": "*", "country": "Warsaw", "city": "PL", "name": "15694", "asn": "15694"}, "lon": "21.0"}, {"lat": "55.7386", "info": {"comment": "*", "country": "*", "city": "RU", "name": "3267", "asn": "3267"}, "lon": "37.6068"}, {"lat": "52.3824", "info": {"comment": "*", "country": "*", "city": "NL", "name": "286", "asn": "286"}, "lon": "4.8995"}, {"lat": "36.1914", "info": {"comment": "*", "country": "S\u00e9tif", "city": "DZ", "name": "36947", "asn": "36947"}, "lon": "5.4094"}, {"lat": "34.5167", "info": {"comment": "*", "country": "Kabul", "city": "AF", "name": "55330", "asn": "55330"}, "lon": "69.1833"}, {"lat": "37.5155", "info": {"comment": "*", "country": "Fremont", "city": "US", "name": "6939", "asn": "6939"}, "lon": "-121.8962"}, {"lat": "36.1333", "info": {"comment": "*", "country": "Gibraltar", "city": "GI", "name": "34803", "asn": "34803"}, "lon": "-5.35"}, {"lat": "37.751", "info": {"comment": "*", "country": "*", "city": "US", "name": "3549", "asn": "3549"}, "lon": "-97.822"}, {"lat": "48.1952", "info": {"comment": "*", "country": "Vienna", "city": "AT", "name": "24992", "asn": "24992"}, "lon": "16.3503"}, {"lat": "31.6133", "info": {"comment": "*", "country": "Kandahar", "city": "AF", "name": "55424", "asn": "55424"}, "lon": "65.7101"}, {"lat": "37.5155", "info": {"comment": "*", "country": "Fremont", "city": "US", "name": "6939", "asn": "6939"}, "lon": "-121.8962"}, {"lat": "34.5167", "info": {"comment": "*", "country": "Kabul", "city": "AF", "name": "55424", "asn": "55424"}, "lon": "69.1833"}, {"lat": "18.5333", "info": {"comment": "*", "country": "Pune", "city": "IN", "name": "6453", "asn": "6453"}, "lon": "73.8667"}, {"lat": "47.0", "info": {"comment": "*", "country": "*", "city": "US", "name": "6453", "asn": "6453"}, "lon": "8.0"}, {"lat": "44.662", "info": {"comment": "*", "country": "Halifax", "city": "CA", "name": "11260", "asn": "11260"}, "lon": "-63.6017"}, {"lat": "37.751", "info": {"comment": "*", "country": "*", "city": "US", "name": "174", "asn": "174"}, "lon": "-97.822"}, {"lat": "42.8731", "info": {"comment": "*", "country": "Bishkek", "city": "KG", "name": "8449", "asn": "8449"}, "lon": "74.6003"}, {"lat": "38.8817", "info": {"comment": "*", "country": "Columbia", "city": "US", "name": "2572", "asn": "2572"}, "lon": "-92.402"}, {"lat": "34.5167", "info": {"comment": "*", "country": "Kabul", "city": "AF", "name": "55424", "asn": "55424"}, "lon": "69.1833"}, {"lat": "39.1252", "info": {"comment": "*", "country": "Pasadena", "city": "US", "name": "174", "asn": "174"}, "lon": "-76.5116"}, {"lat": "51.4964", "info": {"comment": "*", "country": "*", "city": "GB", "name": "21320", "asn": "21320"}, "lon": "-0.1224"}, {"lat": "-34.8213", "info": {"comment": "*", "country": "Ridgehaven", "city": "AU", "name": "4739", "asn": "4739"}, "lon": "138.7047"}, {"lat": "34.5167", "info": {"comment": "*", "country": "Kabul", "city": "AF", "name": "55330", "asn": "55330"}, "lon": "69.1833"}, {"lat": "37.751", "info": {"comment": "*", "country": "*", "city": "US", "name": "3356", "asn": "3356"}, "lon": "-97.822"}, {"lat": "37.5483", "info": {"comment": "*", "country": "Fremont", "city": "US", "name": "6939", "asn": "6939"}, "lon": "-121.9886"}, {"lat": "52.106", "info": {"comment": "*", "country": "Utrecht", "city": "NL", "name": "3356", "asn": "3356"}, "lon": "5.1032"}, {"lat": "35.69", "info": {"comment": "*", "country": "*", "city": "JP", "name": "45899", "asn": "45899"}, "lon": "139.69"}, {"lat": "47.0", "info": {"comment": "*", "country": "*", "city": "US", "name": "174", "asn": "174"}, "lon": "8.0"}, {"lat": "38.8817", "info": {"comment": "*", "country": "Columbia", "city": "US", "name": "2572", "asn": "2572"}, "lon": "-92.402"}, {"lat": "37.5155", "info": {"comment": "*", "country": "Fremont", "city": "US", "name": "6939", "asn": "6939"}, "lon": "-121.8962"}, {"lat": "33.0", "info": {"comment": "*", "country": "*", "city": "AF", "name": "55424", "asn": "55424"}, "lon": "65.0"}, {"lat": "37.5155", "info": {"comment": "*", "country": "Fremont", "city": "US", "name": "6939", "asn": "6939"}, "lon": "-121.8962"}, {"lat": "34.5167", "info": {"comment": "*", "country": "Kabul", "city": "AF", "name": "55330", "asn": "55330"}, "lon": "69.1833"}, {"lat": "40.4086", "info": {"comment": "*", "country": "Madrid", "city": "ES", "name": "766", "asn": "766"}, "lon": "-3.6922"}, {"lat": "50.1167", "info": {"comment": "*", "country": "Frankfurt am Main", "city": "DE", "name": "6939", "asn": "6939"}, "lon": "8.6833"}, {"lat": "52.3824", "info": {"comment": "*", "country": "*", "city": "NL", "name": "286", "asn": "286"}, "lon": "4.8995"}, {"lat": "34.5167", "info": {"comment": "*", "country": "Kabul", "city": "AF", "name": "55745", "asn": "55745"}, "lon": "69.1833"}, {"lat": "37.751", "info": {"comment": "*", "country": "*", "city": "US", "name": "174", "asn": "174"}, "lon": "-97.822"}, {"lat": "37.751", "info": {"comment": "*", "country": "*", "city": "US", "name": "174", "asn": "174"}, "lon": "-97.822"}, {"lat": "40.4172", "info": {"comment": "*", "country": "*", "city": "ES", "name": "8426", "asn": "8426"}, "lon": "-3.684"}, {"lat": "46.0", "info": {"comment": "*", "country": "*", "city": "RO", "name": "25409", "asn": "25409"}, "lon": "25.0"}, {"lat": "33.0", "info": {"comment": "*", "country": "*", "city": "AF", "name": "24244", "asn": "24244"}, "lon": "65.0"}, {"lat": "37.5155", "info": {"comment": "*", "country": "Fremont", "city": "US", "name": "6939", "asn": "6939"}, "lon": "-121.8962"}, {"lat": "48.2", "info": {"comment": "*", "country": "*", "city": "AT", "name": "12401", "asn": "12401"}, "lon": "16.3667"}, {"lat": "37.5155", "info": {"comment": "*", "country": "Fremont", "city": "US", "name": "6939", "asn": "6939"}, "lon": "-121.8962"}, {"lat": "37.5155", "info": {"comment": "*", "country": "Fremont", "city": "US", "name": "6939", "asn": "6939"}, "lon": "-121.8962"}, {"lat": "37.751", "info": {"comment": "*", "country": "*", "city": "US", "name": "174", "asn": "174"}, "lon": "-97.822"}, {"lat": "52.3824", "info": {"comment": "*", "country": "*", "city": "NL", "name": "286", "asn": "286"}, "lon": "4.8995"}, {"lat": "39.7351", "info": {"comment": "*", "country": "Wilmington", "city": "US", "name": "6453", "asn": "6453"}, "lon": "-75.6684"}, {"lat": "34.3482", "info": {"comment": "*", "country": "Herat", "city": "AF", "name": "55330", "asn": "55330"}, "lon": "62.1997"}, {"lat": "34.3482", "info": {"comment": "*", "country": "Herat", "city": "AF", "name": "55330", "asn": "55330"}, "lon": "62.1997"}, {"lat": "37.5155", "info": {"comment": "*", "country": "Fremont", "city": "US", "name": "6939", "asn": "6939"}, "lon": "-121.8962"}, {"lat": "-33.494", "info": {"comment": "*", "country": "*", "city": "AU", "name": "703", "asn": "703"}, "lon": "143.2104"}, {"lat": "51.2993", "info": {"comment": "*", "country": "*", "city": "DE", "name": "24940", "asn": "24940"}, "lon": "9.491"}, {"lat": "40.4086", "info": {"comment": "*", "country": "Madrid", "city": "ES", "name": "766", "asn": "766"}, "lon": "-3.6922"}, {"lat": "48.7963", "info": {"comment": "*", "country": "Cachan", "city": "FR", "name": "8218", "asn": "8218"}, "lon": "2.3366"}, {"lat": "51.2993", "info": {"comment": "*", "country": "*", "city": "DE", "name": "24940", "asn": "24940"}, "lon": "9.491"}, {"lat": "47.0", "info": {"comment": "*", "country": "*", "city": "US", "name": "174", "asn": "174"}, "lon": "8.0"}, {"lat": "37.5155", "info": {"comment": "*", "country": "Fremont", "city": "US", "name": "6939", "asn": "6939"}, "lon": "-121.8962"}, {"lat": "37.5155", "info": {"comment": "*", "country": "Fremont", "city": "US", "name": "6939", "asn": "6939"}, "lon": "-121.8962"}, {"lat": "48.9167", "info": {"comment": "*", "country": "Paris", "city": "FR", "name": "6453", "asn": "6453"}, "lon": "2.3833"}, {"lat": "33.0", "info": {"comment": "*", "country": "*", "city": "AF", "name": "55424", "asn": "55424"}, "lon": "65.0"}, {"lat": "37.5155", "info": {"comment": "*", "country": "Fremont", "city": "US", "name": "6939", "asn": "6939"}, "lon": "-121.8962"}, {"lat": "44.8186", "info": {"comment": "*", "country": "Belgrade", "city": "RS", "name": "8400", "asn": "8400"}, "lon": "20.4681"}, {"lat": "39.7351", "info": {"comment": "*", "country": "Wilmington", "city": "US", "name": "6453", "asn": "6453"}, "lon": "-75.6684"}, {"lat": "37.5155", "info": {"comment": "*", "country": "Fremont", "city": "US", "name": "6939", "asn": "6939"}, "lon": "-121.8962"}, {"lat": "47.0", "info": {"comment": "*", "country": "*", "city": "US", "name": "6453", "asn": "6453"}, "lon": "8.0"}, {"lat": "39.7351", "info": {"comment": "*", "country": "Wilmington", "city": "US", "name": "6453", "asn": "6453"}, "lon": "-75.6684"}, {"lat": "51.2993", "info": {"comment": "*", "country": "*", "city": "DE", "name": "198710", "asn": "198710"}, "lon": "9.491"}, {"lat": "-33.494", "info": {"comment": "*", "country": "*", "city": "AU", "name": "4739", "asn": "4739"}, "lon": "143.2104"}, {"lat": "40.4086", "info": {"comment": "*", "country": "Madrid", "city": "ES", "name": "766", "asn": "766"}, "lon": "-3.6922"}, {"lat": "52.3824", "info": {"comment": "*", "country": "*", "city": "NL", "name": "286", "asn": "286"}, "lon": "4.8995"}, {"lat": "24.0", "info": {"comment": "*", "country": "*", "city": "AE", "name": "6453", "asn": "6453"}, "lon": "54.0"}, {"lat": "37.5155", "info": {"comment": "*", "country": "Fremont", "city": "US", "name": "6939", "asn": "6939"}, "lon": "-121.8962"}, {"lat": "37.751", "info": {"comment": "*", "country": "*", "city": "US", "name": "174", "asn": "174"}, "lon": "-97.822"}, {"lat": "51.5142", "info": {"comment": "*", "country": "London", "city": "GB", "name": "5400", "asn": "5400"}, "lon": "-0.0931"}, {"lat": "33.0", "info": {"comment": "*", "country": "*", "city": "AF", "name": "55424", "asn": "55424"}, "lon": "65.0"}, {"lat": "37.5155", "info": {"comment": "*", "country": "Fremont", "city": "US", "name": "6939", "asn": "6939"}, "lon": "-121.8962"}, {"lat": "51.2993", "info": {"comment": "*", "country": "*", "city": "DE", "name": "3257_4436", "asn": "3257_4436"}, "lon": "9.491"}, {"lat": "42.4155", "info": {"comment": "*", "country": "Arlington", "city": "US", "name": "701", "asn": "701"}, "lon": "-71.1756"}, {"lat": "51.2993", "info": {"comment": "*", "country": "*", "city": "DE", "name": "21032", "asn": "21032"}, "lon": "9.491"}, {"lat": "51.2993", "info": {"comment": "*", "country": "*", "city": "DE", "name": "2914", "asn": "2914"}, "lon": "9.491"}, {"lat": "37.3961", "info": {"comment": "*", "country": "Santa Clara", "city": "US", "name": "11404", "asn": "11404"}, "lon": "-121.9617"}, {"lat": "18.5333", "info": {"comment": "*", "country": "Pune", "city": "IN", "name": "6453", "asn": "6453"}, "lon": "73.8667"}, {"lat": "36.1914", "info": {"comment": "*", "country": "S\u00e9tif", "city": "DZ", "name": "36947", "asn": "36947"}, "lon": "5.4094"}, {"lat": "55.752", "info": {"comment": "*", "country": "Moscow", "city": "RU", "name": "8470", "asn": "8470"}, "lon": "37.615"}, {"lat": "37.5155", "info": {"comment": "*", "country": "Fremont", "city": "US", "name": "6939", "asn": "6939"}, "lon": "-121.8962"}, {"lat": "51.5142", "info": {"comment": "*", "country": "London", "city": "GB", "name": "5400", "asn": "5400"}, "lon": "-0.0931"}, {"lat": "37.751", "info": {"comment": "*", "country": "*", "city": "US", "name": "7385", "asn": "7385"}, "lon": "-97.822"}, {"lat": "51.4964", "info": {"comment": "*", "country": "*", "city": "GB", "name": "6453", "asn": "6453"}, "lon": "-0.1224"}, {"lat": "45.75", "info": {"comment": "*", "country": "Harbin", "city": "CN", "name": "4538", "asn": "4538"}, "lon": "126.65"}, {"lat": "18.5333", "info": {"comment": "*", "country": "Pune", "city": "IN", "name": "6453", "asn": "6453"}, "lon": "73.8667"}, {"lat": "38.8817", "info": {"comment": "*", "country": "Columbia", "city": "US", "name": "2572", "asn": "2572"}, "lon": "-92.402"}, {"lat": "51.2993", "info": {"comment": "*", "country": "*", "city": "DE", "name": "3320", "asn": "3320"}, "lon": "9.491"}, {"lat": "52.3824", "info": {"comment": "*", "country": "*", "city": "NL", "name": "286", "asn": "286"}, "lon": "4.8995"}, {"lat": "34.5167", "info": {"comment": "*", "country": "Kabul", "city": "AF", "name": "55330", "asn": "55330"}, "lon": "69.1833"}, {"lat": "37.751", "info": {"comment": "*", "country": "*", "city": "US", "name": "6461", "asn": "6461"}, "lon": "-97.822"}, {"lat": "48.2", "info": {"comment": "*", "country": "*", "city": "AT", "name": "8218", "asn": "8218"}, "lon": "16.3667"}, {"lat": "37.5155", "info": {"comment": "*", "country": "Fremont", "city": "US", "name": "6939", "asn": "6939"}, "lon": "-121.8962"}, {"lat": "40.7421", "info": {"comment": "*", "country": "New York", "city": "US", "name": "6453", "asn": "6453"}, "lon": "-74.0018"}, {"lat": "34.5167", "info": {"comment": "*", "country": "Kabul", "city": "AF", "name": "55424", "asn": "55424"}, "lon": "69.1833"}, {"lat": "55.038", "info": {"comment": "*", "country": "Newcastle upon Tyne", "city": "GB", "name": "51338", "asn": "51338"}, "lon": "-1.8652"}, {"lat": "48.6004", "info": {"comment": "*", "country": "Strasbourg", "city": "FR", "name": "8839", "asn": "8839"}, "lon": "7.7874"}, {"lat": "48.9167", "info": {"comment": "*", "country": "Paris", "city": "FR", "name": "6453", "asn": "6453"}, "lon": "2.3833"}, {"lat": "39.6237", "info": {"comment": "*", "country": "Englewood", "city": "US", "name": "2914", "asn": "2914"}, "lon": "-104.8738"}, {"lat": "47.0", "info": {"comment": "*", "country": "*", "city": "US", "name": "6453", "asn": "6453"}, "lon": "8.0"}, {"lat": "37.751", "info": {"comment": "*", "country": "*", "city": "US", "name": "174", "asn": "174"}, "lon": "-97.822"}, {"lat": "-33.494", "info": {"comment": "*", "country": "*", "city": "AU", "name": "1221", "asn": "1221"}, "lon": "143.2104"}, {"lat": "34.5167", "info": {"comment": "*", "country": "Kabul", "city": "AF", "name": "55424", "asn": "55424"}, "lon": "69.1833"}, {"lat": "-33.8424", "info": {"comment": "*", "country": "Kurraba Point", "city": "AU", "name": "4739", "asn": "4739"}, "lon": "151.2226"}, {"lat": "45.1845", "info": {"comment": "*", "country": "Buffalo", "city": "US", "name": "5006", "asn": "5006"}, "lon": "-93.8397"}, {"lat": "37.751", "info": {"comment": "*", "country": "*", "city": "US", "name": "7385", "asn": "7385"}, "lon": "-97.822"}, {"lat": "37.4997", "info": {"comment": "*", "country": "Mingzhou", "city": "CN", "name": "4134", "asn": "4134"}, "lon": "110.2539"}, {"lat": "40.7801", "info": {"comment": "*", "country": "Secaucus", "city": "US", "name": "6453", "asn": "6453"}, "lon": "-74.0633"}, {"lat": "52.3824", "info": {"comment": "*", "country": "*", "city": "NL", "name": "286", "asn": "286"}, "lon": "4.8995"}, {"lat": "37.5155", "info": {"comment": "*", "country": "Fremont", "city": "US", "name": "6939", "asn": "6939"}, "lon": "-121.8962"}, {"lat": "*", "info": {"comment": "*", "country": "*", "city": "*", "name": "*", "asn": "*"}, "lon": "*"}, {"lat": "51.5142", "info": {"comment": "*", "country": "London", "city": "GB", "name": "5400", "asn": "5400"}, "lon": "-0.0931"}, {"lat": "36.1914", "info": {"comment": "*", "country": "S\u00e9tif", "city": "DZ", "name": "36947", "asn": "36947"}, "lon": "5.4094"}, {"lat": "*", "info": {"comment": "*", "country": "*", "city": "*", "name": "*", "asn": "*"}, "lon": "*"}, {"lat": "51.5142", "info": {"comment": "*", "country": "London", "city": "GB", "name": "5400", "asn": "5400"}, "lon": "-0.0931"}, {"lat": "47.0", "info": {"comment": "*", "country": "*", "city": "EU", "name": "1299", "asn": "1299"}, "lon": "8.0"}, {"lat": "52.3824", "info": {"comment": "*", "country": "*", "city": "NL", "name": "286", "asn": "286"}, "lon": "4.8995"}, {"lat": "51.5085", "info": {"comment": "*", "country": "London", "city": "GB", "name": "2914", "asn": "2914"}, "lon": "-0.1257"}, {"lat": "40.6441", "info": {"comment": "*", "country": "Brooklyn", "city": "US", "name": "6453", "asn": "6453"}, "lon": "-73.9779"}, {"lat": "51.5085", "info": {"comment": "*", "country": "London", "city": "GB", "name": "6453", "asn": "6453"}, "lon": "-0.1257"}, {"lat": "22.25", "info": {"comment": "*", "country": "*", "city": "HK", "name": "6453", "asn": "6453"}, "lon": "114.1667"}, {"lat": "51.2993", "info": {"comment": "*", "country": "*", "city": "DE", "name": "8426", "asn": "8426"}, "lon": "9.491"}, {"lat": "51.4964", "info": {"comment": "*", "country": "*", "city": "GB", "name": "1273", "asn": "1273"}, "lon": "-0.1224"}, {"lat": "39.7351", "info": {"comment": "*", "country": "Wilmington", "city": "US", "name": "6453", "asn": "6453"}, "lon": "-75.6684"}, {"lat": "1.3667", "info": {"comment": "*", "country": "*", "city": "SG", "name": "6453", "asn": "6453"}, "lon": "103.8"}, {"lat": "45.8758", "info": {"comment": "*", "country": "Sales", "city": "FR", "name": "28855", "asn": "28855"}, "lon": "5.96"}, {"lat": "37.5155", "info": {"comment": "*", "country": "Fremont", "city": "US", "name": "6939", "asn": "6939"}, "lon": "-121.8962"}, {"lat": "43.6319", "info": {"comment": "*", "country": "*", "city": "CA", "name": "852", "asn": "852"}, "lon": "-79.3716"}, {"lat": "40.4172", "info": {"comment": "*", "country": "*", "city": "ES", "name": "2914", "asn": "2914"}, "lon": "-3.684"}, {"lat": "47.0", "info": {"comment": "*", "country": "*", "city": "US", "name": "174", "asn": "174"}, "lon": "8.0"}, {"lat": "36.1914", "info": {"comment": "*", "country": "S\u00e9tif", "city": "DZ", "name": "36947", "asn": "36947"}, "lon": "5.4094"}, {"lat": "33.0", "info": {"comment": "*", "country": "*", "city": "AF", "name": "55424", "asn": "55424"}, "lon": "65.0"}, {"lat": "39.1252", "info": {"comment": "*", "country": "Pasadena", "city": "US", "name": "174", "asn": "174"}, "lon": "-76.5116"}, {"lat": "42.7", "info": {"comment": "*", "country": "*", "city": "BG", "name": "8262", "asn": "8262"}, "lon": "23.3333"}, {"lat": "50.1223", "info": {"comment": "*", "country": "Frankfurt am Main", "city": "DE", "name": "2914", "asn": "2914"}, "lon": "8.6809"}, {"lat": "43.5469", "info": {"comment": "*", "country": "Boise", "city": "US", "name": "7385", "asn": "7385"}, "lon": "-116.2913"}, {"lat": "48.8763", "info": {"comment": "*", "country": "Paris", "city": "FR", "name": "8218", "asn": "8218"}, "lon": "2.3183"}, {"lat": "49.6867", "info": {"comment": "*", "country": "Bensheim", "city": "DE", "name": "12897", "asn": "12897"}, "lon": "8.6284"}, {"lat": "45.498", "info": {"comment": "*", "country": "Montreal", "city": "CA", "name": "6453", "asn": "6453"}, "lon": "-73.5472"}, {"lat": "33.0", "info": {"comment": "*", "country": "*", "city": "AF", "name": "24244", "asn": "24244"}, "lon": "65.0"}, {"lat": "44.5614", "info": {"comment": "*", "country": "Buftea", "city": "RO", "name": "8751", "asn": "8751"}, "lon": "25.9489"}, {"lat": "48.7963", "info": {"comment": "*", "country": "Cachan", "city": "FR", "name": "8218", "asn": "8218"}, "lon": "2.3366"}, {"lat": "47.0", "info": {"comment": "*", "country": "*", "city": "US", "name": "6453", "asn": "6453"}, "lon": "8.0"}, {"lat": "28.4667", "info": {"comment": "*", "country": "Gurgaon", "city": "IN", "name": "23872", "asn": "23872"}, "lon": "77.0333"}, {"lat": "47.0", "info": {"comment": "*", "country": "*", "city": "EU", "name": "1299", "asn": "1299"}, "lon": "8.0"}, {"lat": "37.5155", "info": {"comment": "*", "country": "Fremont", "city": "US", "name": "6939", "asn": "6939"}, "lon": "-121.8962"}, {"lat": "1.3667", "info": {"comment": "*", "country": "*", "city": "SG", "name": "6453", "asn": "6453"}, "lon": "103.8"}, {"lat": "37.751", "info": {"comment": "*", "country": "*", "city": "US", "name": "174", "asn": "174"}, "lon": "-97.822"}, {"lat": "1.2931", "info": {"comment": "*", "country": "Singapore", "city": "SG", "name": "38001", "asn": "38001"}, "lon": "103.8558"}, {"lat": "51.5142", "info": {"comment": "*", "country": "London", "city": "GB", "name": "5400", "asn": "5400"}, "lon": "-0.0931"}, {"lat": "43.6319", "info": {"comment": "*", "country": "*", "city": "CA", "name": "15290", "asn": "15290"}, "lon": "-79.3716"}, {"lat": "37.5155", "info": {"comment": "*", "country": "Fremont", "city": "US", "name": "6939", "asn": "6939"}, "lon": "-121.8962"}, {"lat": "51.2993", "info": {"comment": "*", "country": "*", "city": "DE", "name": "3320", "asn": "3320"}, "lon": "9.491"}, {"lat": "47.0", "info": {"comment": "*", "country": "*", "city": "US", "name": "174", "asn": "174"}, "lon": "8.0"}, {"lat": "43.5469", "info": {"comment": "*", "country": "Boise", "city": "US", "name": "7385", "asn": "7385"}, "lon": "-116.2913"}, {"lat": "37.5155", "info": {"comment": "*", "country": "Fremont", "city": "US", "name": "6939", "asn": "6939"}, "lon": "-121.8962"}, {"lat": "18.5333", "info": {"comment": "*", "country": "Pune", "city": "IN", "name": "6453", "asn": "6453"}, "lon": "73.8667"}, {"lat": "47.1449", "info": {"comment": "*", "country": "*", "city": "CH", "name": "9044", "asn": "9044"}, "lon": "8.1551"}, {"lat": "37.751", "info": {"comment": "*", "country": "*", "city": "US", "name": "174", "asn": "174"}, "lon": "-97.822"}, {"lat": "47.0", "info": {"comment": "*", "country": "*", "city": "EU", "name": "1299", "asn": "1299"}, "lon": "8.0"}, {"lat": "37.5155", "info": {"comment": "*", "country": "Fremont", "city": "US", "name": "6939", "asn": "6939"}, "lon": "-121.8962"}, {"lat": "45.75", "info": {"comment": "*", "country": "Harbin", "city": "CN", "name": "4538", "asn": "4538"}, "lon": "126.65"}, {"lat": "48.8763", "info": {"comment": "*", "country": "Paris", "city": "FR", "name": "8218", "asn": "8218"}, "lon": "2.3183"}, {"lat": "37.5155", "info": {"comment": "*", "country": "Fremont", "city": "US", "name": "6939", "asn": "6939"}, "lon": "-121.8962"}, {"lat": "47.0", "info": {"comment": "*", "country": "*", "city": "US", "name": "6453", "asn": "6453"}, "lon": "8.0"}, {"lat": "37.5155", "info": {"comment": "*", "country": "Fremont", "city": "US", "name": "6939", "asn": "6939"}, "lon": "-121.8962"}, {"lat": "39.1252", "info": {"comment": "*", "country": "Pasadena", "city": "US", "name": "174", "asn": "174"}, "lon": "-76.5116"}, {"lat": "-22.8305", "info": {"comment": "*", "country": "*", "city": "BR", "name": "53166", "asn": "53166"}, "lon": "-43.2192"}, {"lat": "47.1449", "info": {"comment": "*", "country": "*", "city": "CH", "name": "3303", "asn": "3303"}, "lon": "8.1551"}, {"lat": "47.0", "info": {"comment": "*", "country": "*", "city": "EU", "name": "1299", "asn": "1299"}, "lon": "8.0"}, {"lat": "51.5085", "info": {"comment": "*", "country": "London", "city": "GB", "name": "6453", "asn": "6453"}, "lon": "-0.1257"}, {"lat": "37.751", "info": {"comment": "*", "country": "*", "city": "US", "name": "174", "asn": "174"}, "lon": "-97.822"}, {"lat": "36.1914", "info": {"comment": "*", "country": "S\u00e9tif", "city": "DZ", "name": "36947", "asn": "36947"}, "lon": "5.4094"}, {"lat": "36.1914", "info": {"comment": "*", "country": "S\u00e9tif", "city": "DZ", "name": "36947", "asn": "36947"}, "lon": "5.4094"}, {"lat": "51.5142", "info": {"comment": "*", "country": "London", "city": "GB", "name": "5400", "asn": "5400"}, "lon": "-0.0931"}, {"lat": "37.5155", "info": {"comment": "*", "country": "Fremont", "city": "US", "name": "6939", "asn": "6939"}, "lon": "-121.8962"}, {"lat": "37.751", "info": {"comment": "*", "country": "*", "city": "US", "name": "3549", "asn": "3549"}, "lon": "-97.822"}, {"lat": "52.3824", "info": {"comment": "*", "country": "*", "city": "NL", "name": "286", "asn": "286"}, "lon": "4.8995"}, {"lat": "37.5483", "info": {"comment": "*", "country": "Fremont", "city": "US", "name": "6939", "asn": "6939"}, "lon": "-121.9886"}, {"lat": "18.5333", "info": {"comment": "*", "country": "Pune", "city": "IN", "name": "6453", "asn": "6453"}, "lon": "73.8667"}, {"lat": "32.8756", "info": {"comment": "*", "country": "Garland", "city": "US", "name": "701", "asn": "701"}, "lon": "-96.6482"}, {"lat": "47.0", "info": {"comment": "*", "country": "*", "city": "US", "name": "174", "asn": "174"}, "lon": "8.0"}, {"lat": "43.6319", "info": {"comment": "*", "country": "*", "city": "CA", "name": "577", "asn": "577"}, "lon": "-79.3716"}, {"lat": "1.3667", "info": {"comment": "*", "country": "*", "city": "SG", "name": "6453", "asn": "6453"}, "lon": "103.8"}, {"lat": "-22.8305", "info": {"comment": "*", "country": "*", "city": "BR", "name": "2715", "asn": "2715"}, "lon": "-43.2192"}, {"lat": "37.3961", "info": {"comment": "*", "country": "Santa Clara", "city": "US", "name": "6453", "asn": "6453"}, "lon": "-121.9617"}, {"lat": "49.6867", "info": {"comment": "*", "country": "Bensheim", "city": "DE", "name": "12897", "asn": "12897"}, "lon": "8.6284"}, {"lat": "34.5167", "info": {"comment": "*", "country": "Kabul", "city": "AF", "name": "55330", "asn": "55330"}, "lon": "69.1833"}, {"lat": "45.8088", "info": {"comment": "*", "country": "Erba", "city": "IT", "name": "174", "asn": "174"}, "lon": "9.2261"}, {"lat": "43.8113", "info": {"comment": "*", "country": "Scarborough", "city": "CA", "name": "6453", "asn": "6453"}, "lon": "-79.193"}, {"lat": "43.5469", "info": {"comment": "*", "country": "Boise", "city": "US", "name": "7385", "asn": "7385"}, "lon": "-116.2913"}, {"lat": "51.4964", "info": {"comment": "*", "country": "*", "city": "GB", "name": "6453", "asn": "6453"}, "lon": "-0.1224"}, {"lat": "51.4964", "info": {"comment": "*", "country": "*", "city": "GB", "name": "9002", "asn": "9002"}, "lon": "-0.1224"}, {"lat": "36.1914", "info": {"comment": "*", "country": "S\u00e9tif", "city": "DZ", "name": "36947", "asn": "36947"}, "lon": "5.4094"}, {"lat": "50.1167", "info": {"comment": "*", "country": "Frankfurt am Main", "city": "DE", "name": "47872", "asn": "47872"}, "lon": "8.6833"}, {"lat": "22.2833", "info": {"comment": "*", "country": "Long Keng", "city": "HK", "name": "6453", "asn": "6453"}, "lon": "114.15"}, {"lat": "37.751", "info": {"comment": "*", "country": "*", "city": "US", "name": "174", "asn": "174"}, "lon": "-97.822"}, {"lat": "37.5155", "info": {"comment": "*", "country": "Fremont", "city": "US", "name": "6939", "asn": "6939"}, "lon": "-121.8962"}, {"lat": "52.3824", "info": {"comment": "*", "country": "*", "city": "NL", "name": "286", "asn": "286"}, "lon": "4.8995"}, {"lat": "47.0", "info": {"comment": "*", "country": "*", "city": "US", "name": "6453", "asn": "6453"}, "lon": "8.0"}, {"lat": "47.0", "info": {"comment": "*", "country": "*", "city": "US", "name": "174", "asn": "174"}, "lon": "8.0"}, {"lat": "47.0", "info": {"comment": "*", "country": "*", "city": "US", "name": "174", "asn": "174"}, "lon": "8.0"}, {"lat": "34.5167", "info": {"comment": "*", "country": "Kabul", "city": "AF", "name": "55330", "asn": "55330"}, "lon": "69.1833"}, {"lat": "47.1449", "info": {"comment": "*", "country": "*", "city": "CH", "name": "6453", "asn": "6453"}, "lon": "8.1551"}, {"lat": "42.7", "info": {"comment": "*", "country": "*", "city": "BG", "name": "15669_12716", "asn": "15669_12716"}, "lon": "23.3333"}, {"lat": "49.9808", "info": {"comment": "*", "country": "Kharkiv", "city": "UA", "name": "35320", "asn": "35320"}, "lon": "36.2527"}, {"lat": "35.69", "info": {"comment": "*", "country": "*", "city": "JP", "name": "9607", "asn": "9607"}, "lon": "139.69"}, {"lat": "37.5155", "info": {"comment": "*", "country": "Fremont", "city": "US", "name": "6939", "asn": "6939"}, "lon": "-121.8962"}, {"lat": "55.752", "info": {"comment": "*", "country": "Moscow", "city": "RU", "name": "2854", "asn": "2854"}, "lon": "37.615"}, {"lat": "-33.494", "info": {"comment": "*", "country": "*", "city": "AU", "name": "4739", "asn": "4739"}, "lon": "143.2104"}, {"lat": "-29.0", "info": {"comment": "*", "country": "*", "city": "ZA", "name": "6453", "asn": "6453"}, "lon": "24.0"}, {"lat": "43.5469", "info": {"comment": "*", "country": "Boise", "city": "US", "name": "7385", "asn": "7385"}, "lon": "-116.2913"}, {"lat": "56.0", "info": {"comment": "*", "country": "*", "city": "LT", "name": "13194", "asn": "13194"}, "lon": "24.0"}, {"lat": "18.5333", "info": {"comment": "*", "country": "Pune", "city": "IN", "name": "6453", "asn": "6453"}, "lon": "73.8667"}, {"lat": "37.751", "info": {"comment": "*", "country": "*", "city": "US", "name": "3356", "asn": "3356"}, "lon": "-97.822"}, {"lat": "37.5155", "info": {"comment": "*", "country": "Fremont", "city": "US", "name": "6939", "asn": "6939"}, "lon": "-121.8962"}, {"lat": "37.751", "info": {"comment": "*", "country": "*", "city": "US", "name": "174", "asn": "174"}, "lon": "-97.822"}, {"lat": "39.7351", "info": {"comment": "*", "country": "Wilmington", "city": "US", "name": "6453", "asn": "6453"}, "lon": "-75.6684"}, {"lat": "45.75", "info": {"comment": "*", "country": "Harbin", "city": "CN", "name": "4538", "asn": "4538"}, "lon": "126.65"}, {"lat": "42.7", "info": {"comment": "*", "country": "*", "city": "BG", "name": "15669_12716", "asn": "15669_12716"}, "lon": "23.3333"}, {"lat": "25.0392", "info": {"comment": "*", "country": "Taipei", "city": "TW", "name": "17709", "asn": "17709"}, "lon": "121.525"}, {"lat": "37.5155", "info": {"comment": "*", "country": "Fremont", "city": "US", "name": "6939", "asn": "6939"}, "lon": "-121.8962"}, {"lat": "37.751", "info": {"comment": "*", "country": "*", "city": "US", "name": "174", "asn": "174"}, "lon": "-97.822"}, {"lat": "-37.7974", "info": {"comment": "*", "country": "Hamilton", "city": "NZ", "name": "9303", "asn": "9303"}, "lon": "175.2604"}, {"lat": "37.5483", "info": {"comment": "*", "country": "Fremont", "city": "US", "name": "6939", "asn": "6939"}, "lon": "-121.9886"}, {"lat": "-33.494", "info": {"comment": "*", "country": "*", "city": "AU", "name": "4739", "asn": "4739"}, "lon": "143.2104"}, {"lat": "39.018", "info": {"comment": "*", "country": "Ashburn", "city": "US", "name": "6453", "asn": "6453"}, "lon": "-77.539"}, {"lat": "39.1252", "info": {"comment": "*", "country": "Pasadena", "city": "US", "name": "174", "asn": "174"}, "lon": "-76.5116"}, {"lat": "47.0", "info": {"comment": "*", "country": "*", "city": "US", "name": "174", "asn": "174"}, "lon": "8.0"}, {"lat": "43.6319", "info": {"comment": "*", "country": "*", "city": "CA", "name": "577", "asn": "577"}, "lon": "-79.3716"}, {"lat": "51.2993", "info": {"comment": "*", "country": "*", "city": "DE", "name": "3320", "asn": "3320"}, "lon": "9.491"}, {"lat": "39.7351", "info": {"comment": "*", "country": "Wilmington", "city": "US", "name": "6453", "asn": "6453"}, "lon": "-75.6684"}, {"lat": "33.0", "info": {"comment": "*", "country": "*", "city": "AF", "name": "38742", "asn": "38742"}, "lon": "65.0"}, {"lat": "47.3126", "info": {"comment": "*", "country": "Saint-Malo-en-Donziois", "city": "FR", "name": "6453", "asn": "6453"}, "lon": "3.2678"}, {"lat": "52.3824", "info": {"comment": "*", "country": "*", "city": "NL", "name": "6453", "asn": "6453"}, "lon": "4.8995"}, {"lat": "47.0", "info": {"comment": "*", "country": "*", "city": "US", "name": "174", "asn": "174"}, "lon": "8.0"}, {"lat": "37.5155", "info": {"comment": "*", "country": "Fremont", "city": "US", "name": "6939", "asn": "6939"}, "lon": "-121.8962"}, {"lat": "34.3482", "info": {"comment": "*", "country": "Herat", "city": "AF", "name": "55330", "asn": "55330"}, "lon": "62.1997"}, {"lat": "45.75", "info": {"comment": "*", "country": "Harbin", "city": "CN", "name": "4538", "asn": "4538"}, "lon": "126.65"}, {"lat": "33.4319", "info": {"comment": "*", "country": "Phoenix", "city": "US", "name": "6453", "asn": "6453"}, "lon": "-112.015"}, {"lat": "52.2333", "info": {"comment": "*", "country": "*", "city": "PL", "name": "12824", "asn": "12824"}, "lon": "21.0167"}, {"lat": "39.7814", "info": {"comment": "*", "country": "Aurora", "city": "US", "name": "3356", "asn": "3356"}, "lon": "-104.7029"}, {"lat": "47.3667", "info": {"comment": "*", "country": "Zurich", "city": "CH", "name": "559", "asn": "559"}, "lon": "8.55"}, {"lat": "39.7351", "info": {"comment": "*", "country": "Wilmington", "city": "US", "name": "6453", "asn": "6453"}, "lon": "-75.6684"}, {"lat": "42.7", "info": {"comment": "*", "country": "*", "city": "BG", "name": "15669_12716", "asn": "15669_12716"}, "lon": "23.3333"}, {"lat": "34.6841", "info": {"comment": "*", "country": "Limassol", "city": "CY", "name": "16229", "asn": "16229"}, "lon": "33.0379"}, {"lat": "37.751", "info": {"comment": "*", "country": "*", "city": "US", "name": "7385", "asn": "7385"}, "lon": "-97.822"}, {"lat": "37.3387", "info": {"comment": "*", "country": "San Jose", "city": "US", "name": "53667", "asn": "53667"}, "lon": "-121.8914"}, {"lat": "34.5167", "info": {"comment": "*", "country": "Kabul", "city": "AF", "name": "55330", "asn": "55330"}, "lon": "69.1833"}, {"lat": "37.5483", "info": {"comment": "*", "country": "Fremont", "city": "US", "name": "6939", "asn": "6939"}, "lon": "-121.9886"}, {"lat": "42.7", "info": {"comment": "*", "country": "*", "city": "BG", "name": "15669_12716", "asn": "15669_12716"}, "lon": "23.3333"}, {"lat": "59.95", "info": {"comment": "*", "country": "*", "city": "NO", "name": "5377", "asn": "5377"}, "lon": "10.75"}, {"lat": "18.5333", "info": {"comment": "*", "country": "Pune", "city": "IN", "name": "6453", "asn": "6453"}, "lon": "73.8667"}, {"lat": "49.9808", "info": {"comment": "*", "country": "Kharkiv", "city": "UA", "name": "35320", "asn": "35320"}, "lon": "36.2527"}, {"lat": "53.3478", "info": {"comment": "*", "country": "*", "city": "IE", "name": "2110", "asn": "2110"}, "lon": "-6.2597"}, {"lat": "55.7522", "info": {"comment": "*", "country": "Moscow", "city": "RU", "name": "12714", "asn": "12714"}, "lon": "37.6156"}, {"lat": "38.6143", "info": {"comment": "*", "country": "St Louis", "city": "US", "name": "30496", "asn": "30496"}, "lon": "-90.4444"}, {"lat": "44.8186", "info": {"comment": "*", "country": "Belgrade", "city": "RS", "name": "8400", "asn": "8400"}, "lon": "20.4681"}, {"lat": "45.8088", "info": {"comment": "*", "country": "Erba", "city": "IT", "name": "174", "asn": "174"}, "lon": "9.2261"}, {"lat": "52.2667", "info": {"comment": "*", "country": "Braunschweig", "city": "DE", "name": "24956", "asn": "24956"}, "lon": "10.5333"}, {"lat": "37.5038", "info": {"comment": "*", "country": "Livermore", "city": "US", "name": "6939", "asn": "6939"}, "lon": "-121.5253"}, {"lat": "49.75", "info": {"comment": "*", "country": "*", "city": "LU", "name": "24611", "asn": "24611"}, "lon": "6.1667"}, {"lat": "33.0", "info": {"comment": "*", "country": "*", "city": "AF", "name": "38742", "asn": "38742"}, "lon": "65.0"}, {"lat": "51.4964", "info": {"comment": "*", "country": "*", "city": "GB", "name": "3356", "asn": "3356"}, "lon": "-0.1224"}, {"lat": "34.5167", "info": {"comment": "*", "country": "Kabul", "city": "AF", "name": "55330", "asn": "55330"}, "lon": "69.1833"}, {"lat": "-29.0", "info": {"comment": "*", "country": "*", "city": "ZA", "name": "5713", "asn": "5713"}, "lon": "24.0"}, {"lat": "52.3824", "info": {"comment": "*", "country": "*", "city": "NL", "name": "286", "asn": "286"}, "lon": "4.8995"}, {"lat": "39.7351", "info": {"comment": "*", "country": "Wilmington", "city": "US", "name": "6453", "asn": "6453"}, "lon": "-75.6684"}, {"lat": "37.5155", "info": {"comment": "*", "country": "Fremont", "city": "US", "name": "6939", "asn": "6939"}, "lon": "-121.8962"}, {"lat": "51.5085", "info": {"comment": "*", "country": "London", "city": "GB", "name": "51918", "asn": "51918"}, "lon": "-0.1257"}, {"lat": "44.8186", "info": {"comment": "*", "country": "Belgrade", "city": "RS", "name": "8400", "asn": "8400"}, "lon": "20.4681"}, {"lat": "39.7351", "info": {"comment": "*", "country": "Wilmington", "city": "US", "name": "6453", "asn": "6453"}, "lon": "-75.6684"}, {"lat": "-33.494", "info": {"comment": "*", "country": "*", "city": "AU", "name": "4739", "asn": "4739"}, "lon": "143.2104"}, {"lat": "37.751", "info": {"comment": "*", "country": "*", "city": "US", "name": "174", "asn": "174"}, "lon": "-97.822"}, {"lat": "45.0705", "info": {"comment": "*", "country": "Turin", "city": "IT", "name": "12779", "asn": "12779"}, "lon": "7.6868"}, {"lat": "48.9167", "info": {"comment": "*", "country": "Paris", "city": "FR", "name": "6453", "asn": "6453"}, "lon": "2.3833"}, {"lat": "39.0942", "info": {"comment": "*", "country": "Pomeroy", "city": "US", "name": "6939", "asn": "6939"}, "lon": "-82.0814"}, {"lat": "51.2993", "info": {"comment": "*", "country": "*", "city": "DE", "name": "29686", "asn": "29686"}, "lon": "9.491"}, {"lat": "-33.494", "info": {"comment": "*", "country": "*", "city": "AU", "name": "2764", "asn": "2764"}, "lon": "143.2104"}, {"lat": "45.8088", "info": {"comment": "*", "country": "Erba", "city": "IT", "name": "174", "asn": "174"}, "lon": "9.2261"}, {"lat": "37.751", "info": {"comment": "*", "country": "*", "city": "US", "name": "3549", "asn": "3549"}, "lon": "-97.822"}, {"lat": "52.3824", "info": {"comment": "*", "country": "*", "city": "NL", "name": "286", "asn": "286"}, "lon": "4.8995"}, {"lat": "37.5155", "info": {"comment": "*", "country": "Fremont", "city": "US", "name": "6939", "asn": "6939"}, "lon": "-121.8962"}, {"lat": "51.2993", "info": {"comment": "*", "country": "*", "city": "DE", "name": "3320", "asn": "3320"}, "lon": "9.491"}, {"lat": "51.4964", "info": {"comment": "*", "country": "*", "city": "GB", "name": "9002", "asn": "9002"}, "lon": "-0.1224"}, {"lat": "36.1333", "info": {"comment": "*", "country": "Gibraltar", "city": "GI", "name": "34803", "asn": "34803"}, "lon": "-5.35"}, {"lat": "47.0", "info": {"comment": "*", "country": "*", "city": "US", "name": "6453", "asn": "6453"}, "lon": "8.0"}, {"lat": "37.5155", "info": {"comment": "*", "country": "Fremont", "city": "US", "name": "6939", "asn": "6939"}, "lon": "-121.8962"}, {"lat": "39.7351", "info": {"comment": "*", "country": "Wilmington", "city": "US", "name": "6453", "asn": "6453"}, "lon": "-75.6684"}, {"lat": "43.6319", "info": {"comment": "*", "country": "*", "city": "CA", "name": "852", "asn": "852"}, "lon": "-79.3716"}, {"lat": "37.5483", "info": {"comment": "*", "country": "Fremont", "city": "US", "name": "6939", "asn": "6939"}, "lon": "-121.9886"}, {"lat": "43.5469", "info": {"comment": "*", "country": "Boise", "city": "US", "name": "7385", "asn": "7385"}, "lon": "-116.2913"}, {"lat": "37.751", "info": {"comment": "*", "country": "*", "city": "US", "name": "7922", "asn": "7922"}, "lon": "-97.822"}, {"lat": "36.1333", "info": {"comment": "*", "country": "Gibraltar", "city": "GI", "name": "34803", "asn": "34803"}, "lon": "-5.35"}, {"lat": "52.25", "info": {"comment": "*", "country": "Warsaw", "city": "PL", "name": "15694", "asn": "15694"}, "lon": "21.0"}, {"lat": "34.5167", "info": {"comment": "*", "country": "Kabul", "city": "AF", "name": "55330", "asn": "55330"}, "lon": "69.1833"}, {"lat": "39.7351", "info": {"comment": "*", "country": "Wilmington", "city": "US", "name": "6453", "asn": "6453"}, "lon": "-75.6684"}, {"lat": "52.35", "info": {"comment": "*", "country": "Amsterdam", "city": "NL", "name": "1200", "asn": "1200"}, "lon": "4.9167"}, {"lat": "34.5167", "info": {"comment": "*", "country": "Kabul", "city": "AF", "name": "55330", "asn": "55330"}, "lon": "69.1833"}, {"lat": "40.4086", "info": {"comment": "*", "country": "Madrid", "city": "ES", "name": "766", "asn": "766"}, "lon": "-3.6922"}, {"lat": "39.7351", "info": {"comment": "*", "country": "Wilmington", "city": "US", "name": "6453", "asn": "6453"}, "lon": "-75.6684"}, {"lat": "52.2333", "info": {"comment": "*", "country": "*", "city": "PL", "name": "48896", "asn": "48896"}, "lon": "21.0167"}, {"lat": "47.0", "info": {"comment": "*", "country": "*", "city": "EU", "name": "1299", "asn": "1299"}, "lon": "8.0"}, {"lat": "51.5142", "info": {"comment": "*", "country": "London", "city": "GB", "name": "5400", "asn": "5400"}, "lon": "-0.0931"}, {"lat": "37.751", "info": {"comment": "*", "country": "*", "city": "US", "name": "7018", "asn": "7018"}, "lon": "-97.822"}, {"lat": "46.0", "info": {"comment": "*", "country": "*", "city": "RO", "name": "49052", "asn": "49052"}, "lon": "25.0"}, {"lat": "43.9848", "info": {"comment": "*", "country": "Winona", "city": "US", "name": "14828", "asn": "14828"}, "lon": "-91.6064"}, {"lat": "18.5333", "info": {"comment": "*", "country": "Pune", "city": "IN", "name": "6453", "asn": "6453"}, "lon": "73.8667"}, {"lat": "39.5419", "info": {"comment": "*", "country": "Littleton", "city": "US", "name": "3549", "asn": "3549"}, "lon": "-104.9213"}, {"lat": "40.3756", "info": {"comment": "*", "country": "Princeton", "city": "US", "name": "88", "asn": "88"}, "lon": "-74.6597"}, {"lat": "55.752", "info": {"comment": "*", "country": "Moscow", "city": "RU", "name": "2854", "asn": "2854"}, "lon": "37.615"}, {"lat": "52.3824", "info": {"comment": "*", "country": "*", "city": "NL", "name": "286", "asn": "286"}, "lon": "4.8995"}, {"lat": "37.751", "info": {"comment": "*", "country": "*", "city": "US", "name": "3356", "asn": "3356"}, "lon": "-97.822"}, {"lat": "18.5333", "info": {"comment": "*", "country": "Pune", "city": "IN", "name": "6453", "asn": "6453"}, "lon": "73.8667"}, {"lat": "43.6329", "info": {"comment": "*", "country": "Toronto", "city": "CA", "name": "6453", "asn": "6453"}, "lon": "-79.3611"}, {"lat": "43.5469", "info": {"comment": "*", "country": "Boise", "city": "US", "name": "7385", "asn": "7385"}, "lon": "-116.2913"}, {"lat": "51.2993", "info": {"comment": "*", "country": "*", "city": "DE", "name": "5539", "asn": "5539"}, "lon": "9.491"}, {"lat": "52.2333", "info": {"comment": "*", "country": "*", "city": "PL", "name": "6453", "asn": "6453"}, "lon": "21.0167"}, {"lat": "37.5155", "info": {"comment": "*", "country": "Fremont", "city": "US", "name": "6939", "asn": "6939"}, "lon": "-121.8962"}, {"lat": "51.2993", "info": {"comment": "*", "country": "*", "city": "DE", "name": "1299", "asn": "1299"}, "lon": "9.491"}, {"lat": "39.7351", "info": {"comment": "*", "country": "Wilmington", "city": "US", "name": "6453", "asn": "6453"}, "lon": "-75.6684"}, {"lat": "-29.0", "info": {"comment": "*", "country": "*", "city": "ZA", "name": "6453", "asn": "6453"}, "lon": "24.0"}, {"lat": "18.5333", "info": {"comment": "*", "country": "Pune", "city": "IN", "name": "6453", "asn": "6453"}, "lon": "73.8667"}, {"lat": "55.7386", "info": {"comment": "*", "country": "*", "city": "RU", "name": "3216", "asn": "3216"}, "lon": "37.6068"}, {"lat": "48.9167", "info": {"comment": "*", "country": "Paris", "city": "FR", "name": "6453", "asn": "6453"}, "lon": "2.3833"}, {"lat": "51.01", "info": {"comment": "*", "country": "Horsham", "city": "GB", "name": "8426", "asn": "8426"}, "lon": "-0.3394"}, {"lat": "33.0", "info": {"comment": "*", "country": "*", "city": "AF", "name": "55424", "asn": "55424"}, "lon": "65.0"}, {"lat": "36.1914", "info": {"comment": "*", "country": "S\u00e9tif", "city": "DZ", "name": "36947", "asn": "36947"}, "lon": "5.4094"}, {"lat": "34.5167", "info": {"comment": "*", "country": "Kabul", "city": "AF", "name": "55330", "asn": "55330"}, "lon": "69.1833"}, {"lat": "34.5167", "info": {"comment": "*", "country": "Kabul", "city": "AF", "name": "55424", "asn": "55424"}, "lon": "69.1833"}, {"lat": "47.3667", "info": {"comment": "*", "country": "Zurich", "city": "CH", "name": "559", "asn": "559"}, "lon": "8.55"}, {"lat": "37.5155", "info": {"comment": "*", "country": "Fremont", "city": "US", "name": "6939", "asn": "6939"}, "lon": "-121.8962"}, {"lat": "39.7351", "info": {"comment": "*", "country": "Wilmington", "city": "US", "name": "6453", "asn": "6453"}, "lon": "-75.6684"}, {"lat": "49.7167", "info": {"comment": "*", "country": "\u010cesk\u00fd T\u011b\u0161\u00edn", "city": "CZ", "name": "43709", "asn": "43709"}, "lon": "18.6"}, {"lat": "39.7351", "info": {"comment": "*", "country": "Wilmington", "city": "US", "name": "6453", "asn": "6453"}, "lon": "-75.6684"}, {"lat": "34.5167", "info": {"comment": "*", "country": "Kabul", "city": "AF", "name": "55330", "asn": "55330"}, "lon": "69.1833"}, {"lat": "47.3667", "info": {"comment": "*", "country": "Zurich", "city": "CH", "name": "559", "asn": "559"}, "lon": "8.55"}, {"lat": "47.0", "info": {"comment": "*", "country": "*", "city": "US", "name": "6453", "asn": "6453"}, "lon": "8.0"}, {"lat": "49.9808", "info": {"comment": "*", "country": "Kharkiv", "city": "UA", "name": "35320", "asn": "35320"}, "lon": "36.2527"}, {"lat": "37.5155", "info": {"comment": "*", "country": "Fremont", "city": "US", "name": "6939", "asn": "6939"}, "lon": "-121.8962"}, {"lat": "34.5167", "info": {"comment": "*", "country": "Kabul", "city": "AF", "name": "55330", "asn": "55330"}, "lon": "69.1833"}, {"lat": "36.1914", "info": {"comment": "*", "country": "S\u00e9tif", "city": "DZ", "name": "36947", "asn": "36947"}, "lon": "5.4094"}, {"lat": "55.6761", "info": {"comment": "*", "country": "*", "city": "DK", "name": "198614", "asn": "198614"}, "lon": "12.5683"}, {"lat": "37.7749", "info": {"comment": "*", "country": "San Francisco", "city": "US", "name": "14061", "asn": "14061"}, "lon": "-122.4194"}, {"lat": "56.6475", "info": {"comment": "*", "country": "Redkino", "city": "RU", "name": "20764", "asn": "20764"}, "lon": "36.2967"}, {"lat": "47.0", "info": {"comment": "*", "country": "*", "city": "US", "name": "174", "asn": "174"}, "lon": "8.0"}, {"lat": "37.751", "info": {"comment": "*", "country": "*", "city": "US", "name": "174", "asn": "174"}, "lon": "-97.822"}, {"lat": "48.9167", "info": {"comment": "*", "country": "Paris", "city": "FR", "name": "6453", "asn": "6453"}, "lon": "2.3833"}, {"lat": "49.2333", "info": {"comment": "*", "country": "*", "city": "DE", "name": "29686", "asn": "29686"}, "lon": "7.0"}, {"lat": "37.9833", "info": {"comment": "*", "country": "Athens", "city": "GR", "name": "3323", "asn": "3323"}, "lon": "23.7333"}, {"lat": "51.2993", "info": {"comment": "*", "country": "*", "city": "DE", "name": "24940", "asn": "24940"}, "lon": "9.491"}, {"lat": "55.7386", "info": {"comment": "*", "country": "*", "city": "RU", "name": "3216", "asn": "3216"}, "lon": "37.6068"}, {"lat": "39.7351", "info": {"comment": "*", "country": "Wilmington", "city": "US", "name": "6453", "asn": "6453"}, "lon": "-75.6684"}, {"lat": "47.6381", "info": {"comment": "*", "country": "Seattle", "city": "US", "name": "6453", "asn": "6453"}, "lon": "-122.3715"}, {"lat": "52.3824", "info": {"comment": "*", "country": "*", "city": "NL", "name": "2914", "asn": "2914"}, "lon": "4.8995"}, {"lat": "48.7963", "info": {"comment": "*", "country": "Cachan", "city": "FR", "name": "8218", "asn": "8218"}, "lon": "2.3366"}, {"lat": "34.5167", "info": {"comment": "*", "country": "Kabul", "city": "AF", "name": "55424", "asn": "55424"}, "lon": "69.1833"}, {"lat": "51.4964", "info": {"comment": "*", "country": "*", "city": "GB", "name": "3356", "asn": "3356"}, "lon": "-0.1224"}, {"lat": "51.5142", "info": {"comment": "*", "country": "London", "city": "GB", "name": "5400", "asn": "5400"}, "lon": "-0.0931"}, {"lat": "45.75", "info": {"comment": "*", "country": "Harbin", "city": "CN", "name": "4538", "asn": "4538"}, "lon": "126.65"}, {"lat": "32.3316", "info": {"comment": "*", "country": "Tucson", "city": "US", "name": "6373", "asn": "6373"}, "lon": "-110.9849"}, {"lat": "49.9808", "info": {"comment": "*", "country": "Kharkiv", "city": "UA", "name": "35320", "asn": "35320"}, "lon": "36.2527"}, {"lat": "37.9833", "info": {"comment": "*", "country": "Athens", "city": "GR", "name": "5408", "asn": "5408"}, "lon": "23.7333"}, {"lat": "37.5155", "info": {"comment": "*", "country": "Fremont", "city": "US", "name": "6939", "asn": "6939"}, "lon": "-121.8962"}, {"lat": "37.751", "info": {"comment": "*", "country": "*", "city": "US", "name": "3356", "asn": "3356"}, "lon": "-97.822"}, {"lat": "47.1449", "info": {"comment": "*", "country": "*", "city": "CH", "name": "6730", "asn": "6730"}, "lon": "8.1551"}, {"lat": "37.5155", "info": {"comment": "*", "country": "Fremont", "city": "US", "name": "6939", "asn": "6939"}, "lon": "-121.8962"}]
